stop_id,stop_code,stop_name,stop_desc,stop_lat,stop_lon,zone_id,stop_url,location_type,parent_station,direction,position
2,2,A Ave & Chandler,Eastbound stop in Lake Oswego (Stop ID 2),45.420609,-122.675671,B,http://trimet.org/#tracker/stop/2,0,,East,Nearside
4,4,A Ave & 10th St,Westbound stop in Lake Oswego (Stop ID 4),45.420703,-122.675152,B,http://trimet.org/#tracker/stop/4,0,,West,Nearside
6,6,A Ave & 8th St,Eastbound stop in Lake Oswego (Stop ID 6),45.420217,-122.67307,B,http://trimet.org/#tracker/stop/6,0,,East,Nearside
7,7,A Ave & 8th St,Westbound stop in Lake Oswego (Stop ID 7),45.420411,-122.67268,B,http://trimet.org/#tracker/stop/7,0,,West,Nearside
8,8,900 Block Abernethy,Eastbound stop in Oregon City (Stop ID 8),45.363509,-122.593886,B,http://trimet.org/#tracker/stop/8,0,,East,At
9,9,Abernethy & Barclay,Northbound stop in Gladstone (Stop ID 9),45.384645,-122.602873,B,http://trimet.org/#tracker/stop/9,0,,North,Nearside
10,10,Abernethy & Barclay,Southbound stop in Gladstone (Stop ID 10),45.38472,-122.60319,B,http://trimet.org/#tracker/stop/10,0,,South,Opposite
11,11,Abernethy & Beatrice,Eastbound stop in Gladstone (Stop ID 11),45.384046,-122.601099,B,http://trimet.org/#tracker/stop/11,0,,East,Farside
12,12,Abernethy & Center,Westbound stop in Gladstone (Stop ID 12),45.38414,-122.601137,B,http://trimet.org/#tracker/stop/12,0,,West,Nearside
13,13,Abernethy & Duniway,Northbound stop in Gladstone (Stop ID 13),45.385893,-122.604724,B,http://trimet.org/#tracker/stop/13,0,,North,Nearside
14,14,Abernethy & Duniway,Southbound stop in Gladstone (Stop ID 14),45.385908,-122.604963,B,http://trimet.org/#tracker/stop/14,0,,South,Opposite
16,16,Abernethy & Portland Ave,Westbound stop in Gladstone (Stop ID 16),45.384222,-122.598181,B,http://trimet.org/#tracker/stop/16,0,,West,Farside
17,17,Abernethy & Portland Ave,Eastbound stop in Gladstone (Stop ID 17),45.384203,-122.597396,B,http://trimet.org/#tracker/stop/17,0,,East,Nearside
20,20,2800 Block NE 92nd,Northbound stop in Portland (Stop ID 20),45.54267,-122.569774,B,http://trimet.org/#tracker/stop/20,0,,North,At
21,21,2800 Block NE 92nd,Southbound stop in Portland (Stop ID 21),45.543152,-122.570032,B,http://trimet.org/#tracker/stop/21,0,,South,At
25,25,3400 Block NE 92nd,Northbound stop in Portland (Stop ID 25),45.548151,-122.568987,B,http://trimet.org/#tracker/stop/25,0,,North,At
26,26,NE 92nd & Hill,Southbound stop in Portland (Stop ID 26),45.545655,-122.570035,B,http://trimet.org/#tracker/stop/26,0,,South,Nearside
27,27,N Adair & 7th,Westbound stop in Cornelius (Stop ID 27),45.520986,-123.063196,B,http://trimet.org/#tracker/stop/27,0,,West,Farside
28,28,2200 Block Baseline,Westbound stop in Cornelius (Stop ID 28),45.520284,-123.044484,B,http://trimet.org/#tracker/stop/28,0,,West,At
30,30,N Adair & 10th,Westbound stop in Cornelius (Stop ID 30),45.520983,-123.059301,B,http://trimet.org/#tracker/stop/30,0,,West,Nearside
31,31,N Adair & 12th,Westbound stop in Cornelius (Stop ID 31),45.52097,-123.056836,B,http://trimet.org/#tracker/stop/31,0,,West,Nearside
32,32,N Adair & 14th,Westbound stop in Cornelius (Stop ID 32),45.520985,-123.054208,B,http://trimet.org/#tracker/stop/32,0,,West,Nearside
33,33,N Adair & 17th,Westbound stop in Cornelius (Stop ID 33),45.520981,-123.051781,B,http://trimet.org/#tracker/stop/33,0,,West,Farside
34,34,N Adair & 20th,Westbound stop in Cornelius (Stop ID 34),45.52046,-123.047696,B,http://trimet.org/#tracker/stop/34,0,,West,Farside
35,35,N Adair & 4th,Westbound stop in Cornelius (Stop ID 35),45.521026,-123.067234,B,http://trimet.org/#tracker/stop/35,0,,West,Farside
40,40,N Trenton & Alaska,Eastbound stop in Portland (Stop ID 40),45.588572,-122.711693,B,http://trimet.org/#tracker/stop/40,0,,East,Nearside
41,41,N Alaska & Chautauqua,Eastbound stop in Portland (Stop ID 41),45.587746,-122.705606,B,http://trimet.org/#tracker/stop/41,0,,East,Nearside
42,42,N Alaska & Chautauqua Pl,Eastbound stop in Portland (Stop ID 42),45.587769,-122.707831,B,http://trimet.org/#tracker/stop/42,0,,East,Opposite
43,43,N Alaska & Chautauqua Pl,Westbound stop in Portland (Stop ID 43),45.587877,-122.707734,B,http://trimet.org/#tracker/stop/43,0,,West,Nearside
44,44,N Alaska & Foss,Eastbound stop in Portland (Stop ID 44),45.58777,-122.71025,B,http://trimet.org/#tracker/stop/44,0,,East,Opposite
45,45,N Alaska & University Park,Westbound stop in Portland (Stop ID 45),45.587885,-122.710217,B,http://trimet.org/#tracker/stop/45,0,,West,Opposite
46,46,NE Alberta & M L King,Eastbound stop in Portland (Stop ID 46),45.559061,-122.661064,B,http://trimet.org/#tracker/stop/46,0,,East,Farside
48,48,NE Alberta & 11th,Eastbound stop in Portland (Stop ID 48),45.559046,-122.654736,B,http://trimet.org/#tracker/stop/48,0,,East,Nearside
49,49,NE Alberta & 11th,Westbound stop in Portland (Stop ID 49),45.559165,-122.654485,B,http://trimet.org/#tracker/stop/49,0,,West,Nearside
50,50,NE Alberta & 13th,Eastbound stop in Portland (Stop ID 50),45.559046,-122.652745,B,http://trimet.org/#tracker/stop/50,0,,East,Nearside
51,51,NE Alberta & 13th,Westbound stop in Portland (Stop ID 51),45.559153,-122.652531,B,http://trimet.org/#tracker/stop/51,0,,West,Nearside
52,52,NE Alberta & 15th,Eastbound stop in Portland (Stop ID 52),45.559032,-122.649877,B,http://trimet.org/#tracker/stop/52,0,,East,Nearside
53,53,NE Alberta & 15th,Westbound stop in Portland (Stop ID 53),45.559157,-122.649524,B,http://trimet.org/#tracker/stop/53,0,,West,Nearside
54,54,NE Alberta & 18th,Eastbound stop in Portland (Stop ID 54),45.559041,-122.646899,B,http://trimet.org/#tracker/stop/54,0,,East,Nearside
55,55,NE Alberta & 18th,Westbound stop in Portland (Stop ID 55),45.55912,-122.64668,B,http://trimet.org/#tracker/stop/55,0,,West,Nearside
60,60,NE Alberta & 24th,Eastbound stop in Portland (Stop ID 60),45.559009,-122.641042,B,http://trimet.org/#tracker/stop/60,0,,East,Nearside
61,61,NE Alberta & 24th,Westbound stop in Portland (Stop ID 61),45.559117,-122.640805,B,http://trimet.org/#tracker/stop/61,0,,West,Nearside
63,63,NE Alberta & 27th,Eastbound stop in Portland (Stop ID 63),45.559,-122.637997,B,http://trimet.org/#tracker/stop/63,0,,East,Nearside
64,64,NE Alberta & 27th,Westbound stop in Portland (Stop ID 64),45.559091,-122.637779,B,http://trimet.org/#tracker/stop/64,0,,West,Nearside
67,67,SE Alberta & 70th,Eastbound stop in Clackamas Co. (Stop ID 67),45.45854,-122.592013,B,http://trimet.org/#tracker/stop/67,0,,East,Opposite
68,68,SE Alberta & 70th,Westbound stop in Clackamas Co. (Stop ID 68),45.458637,-122.591826,B,http://trimet.org/#tracker/stop/68,0,,West,Nearside
69,69,NE Alberta & 9th,Eastbound stop in Portland (Stop ID 69),45.559067,-122.65667,B,http://trimet.org/#tracker/stop/69,0,,East,Nearside
70,70,NE Alberta & 9th,Westbound stop in Portland (Stop ID 70),45.559153,-122.656451,B,http://trimet.org/#tracker/stop/70,0,,West,Nearside
71,71,N Albina & Ainsworth,Northbound stop in Portland (Stop ID 71),45.566631,-122.674812,B,http://trimet.org/#tracker/stop/71,0,,North,Farside
72,72,N Albina & Ainsworth,Southbound stop in Portland (Stop ID 72),45.566519,-122.675031,B,http://trimet.org/#tracker/stop/72,0,,South,Nearside
73,73,N Albina & Alberta,Northbound stop in Portland (Stop ID 73),45.558897,-122.674919,B,http://trimet.org/#tracker/stop/73,0,,North,Nearside
74,74,N Albina & Alberta,Southbound stop in Portland (Stop ID 74),45.558749,-122.67512,B,http://trimet.org/#tracker/stop/74,0,,South,Farside
76,76,N Albina & Blandena,Northbound stop in Portland (Stop ID 76),45.557129,-122.674851,B,http://trimet.org/#tracker/stop/76,0,,North,Farside
77,77,N Albina & Blandena,Southbound stop in Portland (Stop ID 77),45.556627,-122.675025,B,http://trimet.org/#tracker/stop/77,0,,South,Farside
78,78,N Albina & Bryant,Northbound stop in Portland (Stop ID 78),45.573291,-122.674735,B,http://trimet.org/#tracker/stop/78,0,,North,Nearside
79,79,N Albina & Bryant,Southbound stop in Portland (Stop ID 79),45.573495,-122.67494,B,http://trimet.org/#tracker/stop/79,0,,South,Nearside
80,80,N Albina & Buffalo,Northbound stop in Portland (Stop ID 80),45.575048,-122.674715,B,http://trimet.org/#tracker/stop/80,0,,North,Nearside
81,81,N Albina & Buffalo,Southbound stop in Portland (Stop ID 81),45.575193,-122.67491,B,http://trimet.org/#tracker/stop/81,0,,South,Nearside
82,82,N Albina & Dekum,Northbound stop in Portland (Stop ID 82),45.571672,-122.674756,B,http://trimet.org/#tracker/stop/82,0,,North,Nearside
83,83,N Albina & Dekum,Southbound stop in Portland (Stop ID 83),45.571831,-122.674942,B,http://trimet.org/#tracker/stop/83,0,,South,Nearside
84,84,N Albina & Holman,Northbound stop in Portland (Stop ID 84),45.568701,-122.674789,B,http://trimet.org/#tracker/stop/84,0,,North,Opposite
88,88,N Albina & Killingsworth,Northbound stop in Portland (Stop ID 88),45.562956,-122.674874,B,http://trimet.org/#tracker/stop/88,0,,North,Farside
89,89,N Albina & Killingsworth,Southbound stop in Portland (Stop ID 89),45.56241,-122.675036,B,http://trimet.org/#tracker/stop/89,0,,South,Farside
90,90,N Albina & Lombard St,Southbound stop in Portland (Stop ID 90),45.576941,-122.67489,B,http://trimet.org/#tracker/stop/90,0,,South,Farside
91,91,N Albina & Rosa Parks Way,Northbound stop in Portland (Stop ID 91),45.570318,-122.674768,B,http://trimet.org/#tracker/stop/91,0,,North,Farside
92,92,N Albina & Rosa Parks Way,Southbound stop in Portland (Stop ID 92),45.569639,-122.67498,B,http://trimet.org/#tracker/stop/92,0,,South,Farside
93,93,N Albina & Lombard St,Northbound stop in Portland (Stop ID 93),45.576869,-122.674693,B,http://trimet.org/#tracker/stop/93,0,,North,Nearside
94,94,N Albina & Sumner,Northbound stop in Portland (Stop ID 94),45.560343,-122.674907,B,http://trimet.org/#tracker/stop/94,0,,North,Nearside
95,95,N Albina & Sumner,Southbound stop in Portland (Stop ID 95),45.560619,-122.675065,B,http://trimet.org/#tracker/stop/95,0,,South,Nearside
99,99,SW Allen & Dale,Eastbound stop in Beaverton (Stop ID 99),45.476406,-122.809463,B,http://trimet.org/#tracker/stop/99,0,,East,Nearside
100,100,SW Allen & Erickson,Eastbound stop in Beaverton (Stop ID 100),45.476401,-122.81212,B,http://trimet.org/#tracker/stop/100,0,,East,Nearside
101,101,SW Allen & Erickson,Westbound stop in Beaverton (Stop ID 101),45.476537,-122.81232,B,http://trimet.org/#tracker/stop/101,0,,West,Farside
102,102,SW Allen & Hall,Eastbound stop in Beaverton (Stop ID 102),45.47638,-122.805739,B,http://trimet.org/#tracker/stop/102,0,,East,Nearside
103,103,SW Allen & Hall,Westbound stop in Beaverton (Stop ID 103),45.476549,-122.805243,B,http://trimet.org/#tracker/stop/103,0,,West,Nearside
104,104,SW Allen & Menlo,Eastbound stop in Beaverton (Stop ID 104),45.476379,-122.817344,B,http://trimet.org/#tracker/stop/104,0,,East,Nearside
105,105,SW Allen & Menlo,Westbound stop in Beaverton (Stop ID 105),45.47658,-122.817005,B,http://trimet.org/#tracker/stop/105,0,,West,Nearside
106,106,SW Allen & Murray,Eastbound stop in Beaverton (Stop ID 106),45.476381,-122.824755,B,http://trimet.org/#tracker/stop/106,0,,East,Farside
108,108,SW Allen & Taralynn,Westbound stop in Beaverton (Stop ID 108),45.476526,-122.809236,B,http://trimet.org/#tracker/stop/108,0,,West,Farside
111,111,SW Allen & Wilson,Eastbound stop in Beaverton (Stop ID 111),45.476402,-122.819245,B,http://trimet.org/#tracker/stop/111,0,,East,Nearside
112,112,SW Allen & Wilson,Westbound stop in Beaverton (Stop ID 112),45.476545,-122.819677,B,http://trimet.org/#tracker/stop/112,0,,West,Opposite
113,113,SW Allen & 141st,Eastbound stop in Beaverton (Stop ID 113),45.476395,-122.821335,B,http://trimet.org/#tracker/stop/113,0,,East,Opposite
114,114,SW Allen & 141st,Westbound stop in Beaverton (Stop ID 114),45.476557,-122.821376,B,http://trimet.org/#tracker/stop/114,0,,West,Nearside
115,115,N Anchor & Channel,Eastbound stop in Portland (Stop ID 115),45.5567,-122.703878,B,http://trimet.org/#tracker/stop/115,0,,East,Nearside
118,118,NE 21st & Argyle,Southbound stop in Portland (Stop ID 118),45.579391,-122.644007,B,http://trimet.org/#tracker/stop/118,0,,South,Farside
121,121,W Arlington & Barton,Eastbound stop in Gladstone (Stop ID 121),45.376432,-122.598823,B,http://trimet.org/#tracker/stop/121,0,,East,Nearside
122,122,W Arlington & Barton,Westbound stop in Gladstone (Stop ID 122),45.3766,-122.598664,B,http://trimet.org/#tracker/stop/122,0,,West,Nearside
123,123,W Arlington & Beatrice,Eastbound stop in Gladstone (Stop ID 123),45.377061,-122.596965,B,http://trimet.org/#tracker/stop/123,0,,East,Nearside
124,124,W Arlington & Beatrice,Westbound stop in Gladstone (Stop ID 124),45.377229,-122.596765,B,http://trimet.org/#tracker/stop/124,0,,West,Nearside
125,125,W Arlington & Bellevue,Eastbound stop in Gladstone (Stop ID 125),45.3777,-122.595057,B,http://trimet.org/#tracker/stop/125,0,,East,Nearside
126,126,W Arlington & Bellevue,Westbound stop in Gladstone (Stop ID 126),45.377864,-122.594889,B,http://trimet.org/#tracker/stop/126,0,,West,Nearside
131,131,E Arlington & Cornell,Eastbound stop in Gladstone (Stop ID 131),45.380385,-122.586848,B,http://trimet.org/#tracker/stop/131,0,,East,Nearside
132,132,E Arlington & Cornell,Westbound stop in Gladstone (Stop ID 132),45.38057,-122.586677,B,http://trimet.org/#tracker/stop/132,0,,West,Nearside
133,133,E Arlington & Harvard,Eastbound stop in Gladstone (Stop ID 133),45.379322,-122.590089,B,http://trimet.org/#tracker/stop/133,0,,East,Nearside
134,134,E Arlington & Harvard,Westbound stop in Gladstone (Stop ID 134),45.379553,-122.589754,B,http://trimet.org/#tracker/stop/134,0,,West,Nearside
135,135,W Arlington & McLoughlin,Westbound stop in Gladstone (Stop ID 135),45.37596,-122.600892,B,http://trimet.org/#tracker/stop/135,0,,West,Nearside
136,136,W Arlington & Portland Ave,Eastbound stop in Gladstone (Stop ID 136),45.378217,-122.593418,B,http://trimet.org/#tracker/stop/136,0,,East,Nearside
137,137,E Arlington & Portland Ave,Westbound stop in Gladstone (Stop ID 137),45.378434,-122.593186,B,http://trimet.org/#tracker/stop/137,0,,West,Nearside
140,140,E Arlington & 82nd Dr,Eastbound stop in Gladstone (Stop ID 140),45.381391,-122.583812,B,http://trimet.org/#tracker/stop/140,0,,East,Nearside
141,141,82nd Dr & E Berkeley,Southbound stop in Gladstone (Stop ID 141),45.382088,-122.583411,B,http://trimet.org/#tracker/stop/141,0,,South,Farside
142,142,SW Arthur & 1st,Eastbound stop in Portland (Stop ID 142),45.503632,-122.679102,B,http://trimet.org/#tracker/stop/142,0,,East,Nearside
143,143,SW Arthur & 1st,Westbound stop in Portland (Stop ID 143),45.503812,-122.678451,B,http://trimet.org/#tracker/stop/143,0,,West,Nearside
146,146,19th & B St,Eastbound stop in Forest Grove (Stop ID 146),45.518534,-123.115448,B,http://trimet.org/#tracker/stop/146,0,,East,Farside
147,147,B Ave & Second St,Westbound stop in Lake Oswego (Stop ID 147),45.420841,-122.665113,B,http://trimet.org/#tracker/stop/147,0,,West,Nearside
150,150,10100 Block SW Barbur,Eastbound stop in Portland (Stop ID 150),45.452501,-122.723412,B,http://trimet.org/#tracker/stop/150,0,,East,At
152,152,10700 Block SW Barbur,Southbound stop in Portland (Stop ID 152),45.447685,-122.729368,B,http://trimet.org/#tracker/stop/152,0,,South,At
153,153,11100 Block SW Barbur,Westbound stop in Portland (Stop ID 153),45.445113,-122.733645,B,http://trimet.org/#tracker/stop/153,0,,West,At
154,154,11100 Block SW Barbur,Eastbound stop in Portland (Stop ID 154),45.444873,-122.733515,B,http://trimet.org/#tracker/stop/154,0,,East,Opposite
155,155,4900 Block SW Barbur,Southbound stop in Portland (Stop ID 155),45.487059,-122.682757,B,http://trimet.org/#tracker/stop/155,0,,South,Opposite
156,156,4900 Block SW Barbur,Northbound stop in Portland (Stop ID 156),45.487677,-122.682515,B,http://trimet.org/#tracker/stop/156,0,,North,At
159,159,SW Barbur & 26th Ave,Eastbound stop in Portland (Stop ID 159),45.462586,-122.702772,B,http://trimet.org/#tracker/stop/159,0,,East,Opposite
160,160,9500 Block SW Barbur,Eastbound stop in Portland (Stop ID 160),45.456526,-122.713429,B,http://trimet.org/#tracker/stop/160,0,,East,At
162,162,SW Barbur & Alice,Eastbound stop in Portland (Stop ID 162),45.458724,-122.709491,B,http://trimet.org/#tracker/stop/162,0,,East,Farside
163,163,SW Barbur & Alice,Westbound stop in Portland (Stop ID 163),45.458449,-122.710493,B,http://trimet.org/#tracker/stop/163,0,,West,Nearside
164,164,SW Barbur & Taylors Ferry,Westbound stop in Portland (Stop ID 164),45.456755,-122.713532,B,http://trimet.org/#tracker/stop/164,0,,West,Nearside
165,165,SW Barbur & Barbur Ct,Westbound stop in Portland (Stop ID 165),45.462404,-122.703653,B,http://trimet.org/#tracker/stop/165,0,,West,Opposite
168,168,SW Barbur & Capitol Hwy,Eastbound stop in Portland (Stop ID 168),45.453229,-122.721559,B,http://trimet.org/#tracker/stop/168,0,,East,Nearside
170,170,SW Barbur & Capitol Hill,Southbound stop in Portland (Stop ID 170),45.465719,-122.697895,B,http://trimet.org/#tracker/stop/170,0,,South,Farside
172,172,SW Barbur & Hamilton,Northbound stop in Portland (Stop ID 172),45.491186,-122.677725,B,http://trimet.org/#tracker/stop/172,0,,North,Farside
173,173,SW Barbur & Hamilton,Westbound stop in Portland (Stop ID 173),45.491037,-122.678566,B,http://trimet.org/#tracker/stop/173,0,,West,Nearside
174,174,SW Barbur & Hooker,Northbound stop in Portland (Stop ID 174),45.502083,-122.681478,B,http://trimet.org/#tracker/stop/174,0,,North,Nearside
175,175,SW Barbur & Hooker,Southbound stop in Portland (Stop ID 175),45.502494,-122.68204,B,http://trimet.org/#tracker/stop/175,0,,South,Nearside
176,176,SW Barbur & Lane,Southbound stop in Portland (Stop ID 176),45.495994,-122.678367,B,http://trimet.org/#tracker/stop/176,0,,South,Nearside
177,177,SW Barbur & Lane,Northbound stop in Portland (Stop ID 177),45.495933,-122.678004,B,http://trimet.org/#tracker/stop/177,0,,North,Opposite
178,178,SW Barbur & Luradel,Southbound stop in Portland (Stop ID 178),45.45104,-122.727302,B,http://trimet.org/#tracker/stop/178,0,,South,Opposite
179,179,SW Barbur & Luradel,Northbound stop in Portland (Stop ID 179),45.450895,-122.727084,B,http://trimet.org/#tracker/stop/179,0,,North,Farside
180,180,SW Barbur & Moss,Northbound stop in Portland (Stop ID 180),45.467494,-122.694279,B,http://trimet.org/#tracker/stop/180,0,,North,Nearside
181,181,SW Barbur & Parkhill Dr,Southbound stop in Portland (Stop ID 181),45.476747,-122.679797,B,http://trimet.org/#tracker/stop/181,0,,South,Farside
182,182,SW Barbur & Parkhill,Northbound stop in Portland (Stop ID 182),45.47748,-122.679657,B,http://trimet.org/#tracker/stop/182,0,,North,Farside
183,183,11200 Block SW Barbur,Eastbound stop in Portland (Stop ID 183),45.444189,-122.736603,B,http://trimet.org/#tracker/stop/183,0,,East,At
184,184,11200 Block SW Barbur,Westbound stop in Portland (Stop ID 184),45.444329,-122.736891,B,http://trimet.org/#tracker/stop/184,0,,West,Opposite
185,185,SW Barbur & Pennoyer,Southbound stop in Portland (Stop ID 185),45.497348,-122.679119,B,http://trimet.org/#tracker/stop/185,0,,South,Opposite
186,186,SW Barbur & Pennoyer,Northbound stop in Portland (Stop ID 186),45.497756,-122.679074,B,http://trimet.org/#tracker/stop/186,0,,North,Farside
187,187,SW Barbur & Primrose,Westbound stop in Portland (Stop ID 187),45.45963,-122.708465,B,http://trimet.org/#tracker/stop/187,0,,West,Nearside
188,188,SW Barbur & Capitol Hwy,Southbound stop in Portland (Stop ID 188),45.480281,-122.680331,B,http://trimet.org/#tracker/stop/188,0,,South,Farside
189,189,SW Barbur & Slavin/Capitol Hwy,Northbound stop in Portland (Stop ID 189),45.480456,-122.680129,B,http://trimet.org/#tracker/stop/189,0,,North,Opposite
191,191,SW Barbur & Terwilliger,Westbound stop in Portland (Stop ID 191),45.471217,-122.686158,B,http://trimet.org/#tracker/stop/191,0,,West,Farside
193,193,SW Barbur & Terwilliger,Eastbound stop in Portland (Stop ID 193),45.470919,-122.684976,B,http://trimet.org/#tracker/stop/193,0,,East,Farside
194,194,8900 Block SW Barbur,Westbound stop in Portland (Stop ID 194),45.46085,-122.706299,B,http://trimet.org/#tracker/stop/194,0,,West,At
195,195,SW Barbur & Whitaker,Northbound stop in Portland (Stop ID 195),45.499066,-122.679787,B,http://trimet.org/#tracker/stop/195,0,,North,Farside
196,196,SW Barbur & Whitaker,Southbound stop in Portland (Stop ID 196),45.498602,-122.679812,B,http://trimet.org/#tracker/stop/196,0,,South,Opposite
197,197,SW Barbur & Woods,Northbound stop in Portland (Stop ID 197),45.500753,-122.680756,B,http://trimet.org/#tracker/stop/197,0,,North,Nearside
198,198,SW Barbur & Woods,Southbound stop in Portland (Stop ID 198),45.500985,-122.681148,B,http://trimet.org/#tracker/stop/198,0,,South,Opposite
199,199,SW Barbur & Bertha,Westbound stop in Portland (Stop ID 199),45.470468,-122.689602,B,http://trimet.org/#tracker/stop/199,0,,West,Farside
200,200,SW Barbur & 13th,Westbound stop in Portland (Stop ID 200),45.468799,-122.692526,B,http://trimet.org/#tracker/stop/200,0,,West,Farside
201,201,SW Barbur & Evans,Southbound stop in Portland (Stop ID 201),45.467022,-122.695625,B,http://trimet.org/#tracker/stop/201,0,,South,Nearside
202,202,SW Barbur & 19th,Eastbound stop in Portland (Stop ID 202),45.465585,-122.697572,B,http://trimet.org/#tracker/stop/202,0,,East,Nearside
203,203,SW Barbur & 2nd,Northbound stop in Portland (Stop ID 203),45.471449,-122.680575,B,http://trimet.org/#tracker/stop/203,0,,North,Nearside
207,207,SW Barbur & 3rd,Westbound stop in Portland (Stop ID 207),45.471567,-122.680911,B,http://trimet.org/#tracker/stop/207,0,,West,Nearside
208,208,SW Barbur & 30th,Eastbound stop in Portland (Stop ID 208),45.459913,-122.707433,B,http://trimet.org/#tracker/stop/208,0,,East,Farside
209,209,SW Barbur & 53rd,Westbound stop in Portland (Stop ID 209),45.446006,-122.730909,B,http://trimet.org/#tracker/stop/209,0,,West,Nearside
210,210,SW Barbur & 53rd,Eastbound stop in Portland (Stop ID 210),45.446239,-122.730142,B,http://trimet.org/#tracker/stop/210,0,,East,Farside
211,211,SW Pacific Hwy & 64th,Eastbound stop in Portland (Stop ID 211),45.44298,-122.742702,B,http://trimet.org/#tracker/stop/211,0,,East,Nearside
212,212,Barbur Transit Center,Eastbound stop in Portland (Stop ID 212),45.454552,-122.71739,B,http://trimet.org/#tracker/stop/212,0,,East,At
227,227,12200 Block NW Barnes,Southbound stop in Beaverton (Stop ID 227),45.521371,-122.804301,B,http://trimet.org/#tracker/stop/227,0,,South,At
228,228,NW Barnes & Saltzman,Northbound stop in Beaverton (Stop ID 228),45.52288,-122.805535,B,http://trimet.org/#tracker/stop/228,0,,North,At
229,229,7600 Block SW Barnes,Eastbound stop in Washington Co. (Stop ID 229),45.512534,-122.756523,B,http://trimet.org/#tracker/stop/229,0,,East,Farside
230,230,8200 Block SW Barnes (Art School),Eastbound stop in Washington Co. (Stop ID 230),45.509866,-122.76171,B,http://trimet.org/#tracker/stop/230,0,,East,Opposite
231,231,8200 Block SW Barnes (Art School),Westbound stop in Washington Co. (Stop ID 231),45.51042,-122.761308,B,http://trimet.org/#tracker/stop/231,0,,West,At
233,233,9300 Block SW Barnes,Eastbound stop in Washington Co. (Stop ID 233),45.509082,-122.773609,B,http://trimet.org/#tracker/stop/233,0,,East,At
234,234,12400 Block NW Barnes,Northbound stop in Beaverton (Stop ID 234),45.522025,-122.804718,B,http://trimet.org/#tracker/stop/234,0,,North,Opposite
235,235,8800 Block SW Barnes (Gabel School),Westbound stop in Washington Co. (Stop ID 235),45.508716,-122.767925,B,http://trimet.org/#tracker/stop/235,0,,West,Nearside
236,236,SW Barnes & Leahy,Eastbound stop in Washington Co. (Stop ID 236),45.511132,-122.760108,B,http://trimet.org/#tracker/stop/236,0,,East,Nearside
237,237,SW Barnes & Leahy,Westbound stop in Washington Co. (Stop ID 237),45.51142,-122.759947,B,http://trimet.org/#tracker/stop/237,0,,West,Nearside
238,238,SW Barnes & Miller,Eastbound stop in Washington Co. (Stop ID 238),45.515763,-122.752319,B,http://trimet.org/#tracker/stop/238,0,,East,Farside
239,239,SW Barnes & Miller,Westbound stop in Washington Co. (Stop ID 239),45.515366,-122.753601,B,http://trimet.org/#tracker/stop/239,0,,West,Farside
240,240,SW Barnes & Monterey/St Vincent Hosp Dr,Westbound stop in Washington Co. (Stop ID 240),45.508877,-122.770308,B,http://trimet.org/#tracker/stop/240,0,,West,Nearside
241,241,SW Barnes & Monterey,Eastbound stop in Washington Co. (Stop ID 241),45.508719,-122.7708,B,http://trimet.org/#tracker/stop/241,0,,East,Nearside
247,247,SW Barnes & W Stark,Eastbound stop in Beaverton (Stop ID 247),45.519695,-122.801206,B,http://trimet.org/#tracker/stop/247,0,,East,Farside
251,251,SW Barnes & 70th,Eastbound stop in Washington Co. (Stop ID 251),45.516112,-122.748978,B,http://trimet.org/#tracker/stop/251,0,,East,Opposite
252,252,SW Barnes & 70th,Westbound stop in Washington Co. (Stop ID 252),45.516358,-122.749396,B,http://trimet.org/#tracker/stop/252,0,,West,Farside
253,253,SW Barnes & 84th,Westbound stop in Washington Co. (Stop ID 253),45.509035,-122.764157,B,http://trimet.org/#tracker/stop/253,0,,West,Farside
255,255,SW Barnes & 88th,Eastbound stop in Washington Co. (Stop ID 255),45.5085,-122.767549,B,http://trimet.org/#tracker/stop/255,0,,East,Nearside
256,256,E Baseline & Valley View,Eastbound stop in Cornelius (Stop ID 256),45.519824,-123.029547,B,http://trimet.org/#tracker/stop/256,0,,East,Opposite
257,257,SE Tualatin Valley Hwy & 44th,Westbound stop in Hillsboro (Stop ID 257),45.501386,-122.938527,B,http://trimet.org/#tracker/stop/257,0,,West,Nearside
258,258,700 Block Baseline,Eastbound stop in Cornelius (Stop ID 258),45.520027,-123.063331,B,http://trimet.org/#tracker/stop/258,0,,East,At
259,259,SW Baseline & Adams,Westbound stop in Hillsboro (Stop ID 259),45.520209,-122.991145,B,http://trimet.org/#tracker/stop/259,0,,West,Nearside
260,260,E Main & NE Brookwood,Westbound stop in Hillsboro (Stop ID 260),45.520039,-122.937267,B,http://trimet.org/#tracker/stop/260,0,,West,Farside
261,261,E Main & SE Brookwood,Eastbound stop in Hillsboro (Stop ID 261),45.519805,-122.937277,B,http://trimet.org/#tracker/stop/261,0,,East,Nearside
263,263,Baseline St & S 26th,Eastbound stop in Cornelius (Stop ID 263),45.519849,-123.040524,B,http://trimet.org/#tracker/stop/263,0,,East,Nearside
264,264,SW Baseline St & 17th,Westbound stop in Hillsboro (Stop ID 264),45.520042,-123.007394,B,http://trimet.org/#tracker/stop/264,0,,West,Opposite
265,265,W Baseline Rd & SW Lisa,Westbound stop in Washington Co. (Stop ID 265),45.516381,-122.871314,B,http://trimet.org/#tracker/stop/265,0,,West,Farside
267,267,2200 Block Baseline,Eastbound stop in Cornelius (Stop ID 267),45.519998,-123.04452,B,http://trimet.org/#tracker/stop/267,0,,East,At
268,268,1000 Block SW Baseline St,Westbound stop in Hillsboro (Stop ID 268),45.520028,-123.000575,B,http://trimet.org/#tracker/stop/268,0,,West,At
269,269,W Baseline Rd & SW Willow Creek Dr,Eastbound stop in Washington Co. (Stop ID 269),45.516157,-122.871055,B,http://trimet.org/#tracker/stop/269,0,,East,Nearside
270,270,Baseline St & S 1st,Eastbound stop in Cornelius (Stop ID 270),45.520028,-123.070225,B,http://trimet.org/#tracker/stop/270,0,,East,Farside
271,271,Baseline St & S 10th,Eastbound stop in Cornelius (Stop ID 271),45.520001,-123.05976,B,http://trimet.org/#tracker/stop/271,0,,East,Nearside
272,272,Baseline St & S 12th,Eastbound stop in Cornelius (Stop ID 272),45.519983,-123.056782,B,http://trimet.org/#tracker/stop/272,0,,East,Farside
273,273,Baseline St & S 14th,Eastbound stop in Cornelius (Stop ID 273),45.520018,-123.05484,B,http://trimet.org/#tracker/stop/273,0,,East,Nearside
275,275,W Baseline Rd & SW 185th,Westbound stop in Hillsboro (Stop ID 275),45.516017,-122.868402,B,http://trimet.org/#tracker/stop/275,0,,West,Farside
277,277,Baseline & S 20th,Eastbound stop in Cornelius (Stop ID 277),45.520061,-123.047219,B,http://trimet.org/#tracker/stop/277,0,,East,Nearside
278,278,W Baseline Rd & SW 194th,Eastbound stop in Washington Co. (Stop ID 278),45.515974,-122.875877,B,http://trimet.org/#tracker/stop/278,0,,East,Farside
279,279,W Baseline Rd & SW 195th,Westbound stop in Washington Co. (Stop ID 279),45.516076,-122.87676,B,http://trimet.org/#tracker/stop/279,0,,West,Nearside
280,280,SE Baseline St & 2nd,Westbound stop in Hillsboro (Stop ID 280),45.520168,-122.987847,B,http://trimet.org/#tracker/stop/280,0,,West,Nearside
284,284,Baseline St & N 26th,Westbound stop in Cornelius (Stop ID 284),45.520167,-123.040746,B,http://trimet.org/#tracker/stop/284,0,,West,Farside
285,285,Baseline St & N 29th/Hobbs,Eastbound stop in Cornelius (Stop ID 285),45.519885,-123.035414,B,http://trimet.org/#tracker/stop/285,0,,East,Opposite
286,286,Baseline St & N 29th/Hobbs,Westbound stop in Cornelius (Stop ID 286),45.520161,-123.036816,B,http://trimet.org/#tracker/stop/286,0,,West,Farside
287,287,Baseline St & N 31st,Westbound stop in Cornelius (Stop ID 287),45.520154,-123.03409,B,http://trimet.org/#tracker/stop/287,0,,West,Farside
288,288,E Main & NE 32nd,Westbound stop in Hillsboro (Stop ID 288),45.520017,-122.949544,B,http://trimet.org/#tracker/stop/288,0,,West,Nearside
290,290,SW Baseline & 331st,Westbound stop in Washington Co. (Stop ID 290),45.520101,-123.01707,B,http://trimet.org/#tracker/stop/290,0,,West,Opposite
291,291,SW Baseline & 331st,Eastbound stop in Washington Co. (Stop ID 291),45.519862,-123.017376,B,http://trimet.org/#tracker/stop/291,0,,East,Farside
292,292,SW Baseline & NW 334th,Westbound stop in Washington Co. (Stop ID 292),45.520066,-123.021239,B,http://trimet.org/#tracker/stop/292,0,,West,Farside
293,293,SW Baseline & NW 334th,Eastbound stop in Washington Co. (Stop ID 293),45.519827,-123.020731,B,http://trimet.org/#tracker/stop/293,0,,East,Opposite
296,296,Baseline & NW 338th,Westbound stop in Cornelius (Stop ID 296),45.520104,-123.024875,B,http://trimet.org/#tracker/stop/296,0,,West,Farside
297,297,Baseline & NW 338th,Eastbound stop in Cornelius (Stop ID 297),45.519792,-123.024296,B,http://trimet.org/#tracker/stop/297,0,,East,Opposite
298,298,Baseline St & Valley View,Westbound stop in Cornelius (Stop ID 298),45.520149,-123.030371,B,http://trimet.org/#tracker/stop/298,0,,West,At
300,300,SW Baseline & 345th,Eastbound stop in Cornelius (Stop ID 300),45.519862,-123.032736,B,http://trimet.org/#tracker/stop/300,0,,East,Nearside
301,301,E Main & NE 37th,Westbound stop in Hillsboro (Stop ID 301),45.520013,-122.944319,B,http://trimet.org/#tracker/stop/301,0,,West,Nearside
302,302,E Main & SE 37th,Eastbound stop in Hillsboro (Stop ID 302),45.51987,-122.944727,B,http://trimet.org/#tracker/stop/302,0,,East,Nearside
303,303,Baseline St & S 4th,Eastbound stop in Cornelius (Stop ID 303),45.519991,-123.066942,B,http://trimet.org/#tracker/stop/303,0,,East,Nearside
304,304,SE Baseline St & 3rd,Westbound stop in Hillsboro (Stop ID 304),45.520142,-122.986034,B,http://trimet.org/#tracker/stop/304,0,,West,Nearside
305,305,E Main & NE 40th,Westbound stop in Hillsboro (Stop ID 305),45.520007,-122.940595,B,http://trimet.org/#tracker/stop/305,0,,West,Nearside
306,306,E Main & NE 40th,Eastbound stop in Hillsboro (Stop ID 306),45.519839,-122.94067,B,http://trimet.org/#tracker/stop/306,0,,East,Opposite
307,307,SE Baseline St & 5th,Westbound stop in Hillsboro (Stop ID 307),45.520114,-122.982407,B,http://trimet.org/#tracker/stop/307,0,,West,Nearside
308,308,SE Baseline St & 7th,Westbound stop in Hillsboro (Stop ID 308),45.520081,-122.97865,B,http://trimet.org/#tracker/stop/308,0,,West,Nearside
310,310,SE Baseline St & 9th,Westbound stop in Hillsboro (Stop ID 310),45.520061,-122.97539,B,http://trimet.org/#tracker/stop/310,0,,West,Nearside
313,313,6200 Block N Basin,Eastbound stop in Portland (Stop ID 313),45.56828,-122.710853,B,http://trimet.org/#tracker/stop/313,0,,East,At
314,314,6300 Block N Basin,Northbound stop in Portland (Stop ID 314),45.568537,-122.711022,B,http://trimet.org/#tracker/stop/314,0,,North,At
315,315,N Basin & Fathom,Southbound stop in Portland (Stop ID 315),45.571264,-122.717473,B,http://trimet.org/#tracker/stop/315,0,,South,Farside
316,316,6700 Block N Basin (Coast Guard),Eastbound stop in Portland (Stop ID 316),45.572468,-122.719884,B,http://trimet.org/#tracker/stop/316,0,,East,At
317,317,N Basin & Emerson,Southbound stop in Portland (Stop ID 317),45.561861,-122.704051,B,http://trimet.org/#tracker/stop/317,0,,South,Opposite
318,318,N Basin & Emerson,Northbound stop in Portland (Stop ID 318),45.562311,-122.704507,B,http://trimet.org/#tracker/stop/318,0,,North,Farside
319,319,N Basin & Ensign,Southbound stop in Portland (Stop ID 319),45.569644,-122.714504,B,http://trimet.org/#tracker/stop/319,0,,South,Nearside
320,320,N Basin & Ensign,Northbound stop in Portland (Stop ID 320),45.569807,-122.714346,B,http://trimet.org/#tracker/stop/320,0,,North,Farside
321,321,N Basin & Fathom,Northbound stop in Portland (Stop ID 321),45.571487,-122.717561,B,http://trimet.org/#tracker/stop/321,0,,North,Nearside
322,322,N Basin & Leverman,Southbound stop in Portland (Stop ID 322),45.565822,-122.708749,B,http://trimet.org/#tracker/stop/322,0,,South,Opposite
324,324,N Basin & Pacific Pride,Northbound stop in Portland (Stop ID 324),45.560333,-122.701723,B,http://trimet.org/#tracker/stop/324,0,,North,At
325,325,2600 Block SW Beaverton-Hillsdale,Eastbound stop in Portland (Stop ID 325),45.480217,-122.704126,B,http://trimet.org/#tracker/stop/325,0,,East,At
326,326,3600 Block SW Beaverton-Hillsdale,Eastbound stop in Portland (Stop ID 326),45.483593,-122.714813,B,http://trimet.org/#tracker/stop/326,0,,East,At
327,327,3600 Block SW Beaverton-Hillsdale,Westbound stop in Portland (Stop ID 327),45.483851,-122.714821,B,http://trimet.org/#tracker/stop/327,0,,West,Opposite
328,328,SW Beaverton-Hillsdale & 59th,Eastbound stop in Portland (Stop ID 328),45.486948,-122.73782,B,http://trimet.org/#tracker/stop/328,0,,East,Opposite
329,329,6100 Block SW Beaverton-Hillsdale,Westbound stop in Portland (Stop ID 329),45.487187,-122.74034,B,http://trimet.org/#tracker/stop/329,0,,West,At
331,331,7300 Block SW Beaverton-Hillsdale,Eastbound stop in Washington Co. (Stop ID 331),45.485993,-122.752023,B,http://trimet.org/#tracker/stop/331,0,,East,Opposite
332,332,7400 Block SW Beaverton-Hillsdale,Westbound stop in Washington Co. (Stop ID 332),45.486163,-122.75344,B,http://trimet.org/#tracker/stop/332,0,,West,At
333,333,7700 Block SW Beaverton-Hillsdale,Eastbound stop in Washington Co. (Stop ID 333),45.486028,-122.754911,B,http://trimet.org/#tracker/stop/333,0,,East,At
335,335,SW Beaverton-Hillsdale & Apple Way,Eastbound stop in Beaverton (Stop ID 335),45.486149,-122.764288,B,http://trimet.org/#tracker/stop/335,0,,East,Nearside
336,336,SW Beaverton-Hillsdale & Bertha,Eastbound stop in Portland (Stop ID 336),45.479156,-122.700834,B,http://trimet.org/#tracker/stop/336,0,,East,Nearside
340,340,SW Beaverton-Hillsdale & Dosch,Westbound stop in Portland (Stop ID 340),45.481625,-122.707507,B,http://trimet.org/#tracker/stop/340,0,,West,Nearside
341,341,SW Beaverton-Hillsdale & Griffith,Westbound stop in Beaverton (Stop ID 341),45.486616,-122.796751,B,http://trimet.org/#tracker/stop/341,0,,West,Farside
342,342,SW Beaverton-Hillsdale & Griffith,Eastbound stop in Beaverton (Stop ID 342),45.486417,-122.797055,B,http://trimet.org/#tracker/stop/342,0,,East,Nearside
343,343,SW Beaverton-Hillsdale & Jamieson,Westbound stop in Beaverton (Stop ID 343),45.486566,-122.774371,B,http://trimet.org/#tracker/stop/343,0,,West,Opposite
344,344,SW Beaverton-Hillsdale & Jamieson,Eastbound stop in Beaverton (Stop ID 344),45.486384,-122.774201,B,http://trimet.org/#tracker/stop/344,0,,East,Farside
345,345,SW Beaverton-Hillsdale & White Pine Ln,Eastbound stop in Beaverton (Stop ID 345),45.486239,-122.767752,B,http://trimet.org/#tracker/stop/345,0,,East,Farside
346,346,SW Beaverton-Hillsdale & Laurelwood,Westbound stop in Beaverton (Stop ID 346),45.486305,-122.760716,B,http://trimet.org/#tracker/stop/346,0,,West,Nearside
347,347,SW Beaverton-Hillsdale & Laurelwood,Eastbound stop in Beaverton (Stop ID 347),45.486134,-122.761143,B,http://trimet.org/#tracker/stop/347,0,,East,Nearside
348,348,SW Beaverton-Hillsdale & Oleson,Eastbound stop in Washington Co. (Stop ID 348),45.486129,-122.748414,B,http://trimet.org/#tracker/stop/348,0,,East,Nearside
349,349,SW Beaverton-Hillsdale & Poplar Ln,Westbound stop in Beaverton (Stop ID 349),45.486369,-122.763875,B,http://trimet.org/#tracker/stop/349,0,,West,Nearside
350,350,SW Beaverton-Hillsdale & Oleson,Westbound stop in Washington Co. (Stop ID 350),45.486464,-122.74794,B,http://trimet.org/#tracker/stop/350,0,,West,Nearside
351,351,SW Beaverton-Hillsdale & Shattuck,Eastbound stop in Portland (Stop ID 351),45.486926,-122.732185,B,http://trimet.org/#tracker/stop/351,0,,East,Nearside
352,352,SW Beaverton-Hillsdale & Shattuck,Westbound stop in Portland (Stop ID 352),45.48718,-122.731977,B,http://trimet.org/#tracker/stop/352,0,,West,Farside
354,354,SW Beaverton-Hillsdale & Western,Eastbound stop in Beaverton (Stop ID 354),45.486425,-122.781969,B,http://trimet.org/#tracker/stop/354,0,,East,Farside
355,355,SW Beaverton-Hillsdale & Western,Westbound stop in Beaverton (Stop ID 355),45.486626,-122.782529,B,http://trimet.org/#tracker/stop/355,0,,West,Opposite
356,356,SW Beaverton-Hillsdale & White Pine Ln,Westbound stop in Beaverton (Stop ID 356),45.486449,-122.767982,B,http://trimet.org/#tracker/stop/356,0,,West,Nearside
357,357,SW Beaverton-Hillsdale & 101st,Eastbound stop in Beaverton (Stop ID 357),45.486433,-122.780138,B,http://trimet.org/#tracker/stop/357,0,,East,Farside
358,358,SW Beaverton-Hillsdale & 101st,Westbound stop in Beaverton (Stop ID 358),45.486627,-122.780601,B,http://trimet.org/#tracker/stop/358,0,,West,Nearside
359,359,SW Beaverton- Hillsdale & 107th,Westbound stop in Beaverton (Stop ID 359),45.486629,-122.786468,B,http://trimet.org/#tracker/stop/359,0,,West,Nearside
360,360,SW Beaverton-Hillsdale & 107th,Eastbound stop in Beaverton (Stop ID 360),45.486432,-122.786863,B,http://trimet.org/#tracker/stop/360,0,,East,Nearside
361,361,SW Beaverton-Hillsdale & 110th,Westbound stop in Beaverton (Stop ID 361),45.486633,-122.790003,B,http://trimet.org/#tracker/stop/361,0,,West,Nearside
362,362,SW Beaverton-Hillsdale & 110th,Eastbound stop in Beaverton (Stop ID 362),45.486413,-122.790333,B,http://trimet.org/#tracker/stop/362,0,,East,Opposite
363,363,SW Beaverton-Hillsdale & 18th Dr,Westbound stop in Portland (Stop ID 363),45.478204,-122.697421,B,http://trimet.org/#tracker/stop/363,0,,West,Nearside
364,364,SW Beaverton-Hillsdale & 25th,Eastbound stop in Portland (Stop ID 364),45.47987,-122.702192,B,http://trimet.org/#tracker/stop/364,0,,East,Farside
365,365,SW Beaverton-Hillsdale & 25th,Westbound stop in Portland (Stop ID 365),45.480084,-122.702266,B,http://trimet.org/#tracker/stop/365,0,,West,Nearside
366,366,2600 Block SW Beaverton-Hillsdale,Westbound stop in Portland (Stop ID 366),45.480449,-122.704166,B,http://trimet.org/#tracker/stop/366,0,,West,Farside
367,367,SW Beaverton-Hillsdale & 30th,Eastbound stop in Portland (Stop ID 367),45.481497,-122.707944,B,http://trimet.org/#tracker/stop/367,0,,East,Nearside
368,368,SW Beaverton-Hillsdale & 33rd,Eastbound stop in Portland (Stop ID 368),45.481759,-122.710514,B,http://trimet.org/#tracker/stop/368,0,,East,Nearside
369,369,SW Beaverton-Hillsdale & 35th,Eastbound stop in Portland (Stop ID 369),45.482633,-122.712668,B,http://trimet.org/#tracker/stop/369,0,,East,Farside
370,370,SW Beaverton-Hillsdale & 35th,Westbound stop in Portland (Stop ID 370),45.482897,-122.712657,B,http://trimet.org/#tracker/stop/370,0,,West,Opposite
371,371,SW Beaverton-Hillsdale & 39th Dr,Eastbound stop in Portland (Stop ID 371),45.484739,-122.717397,B,http://trimet.org/#tracker/stop/371,0,,East,Opposite
372,372,SW Beaverton-Hillsdale & 39th Dr,Westbound stop in Portland (Stop ID 372),45.48458,-122.716451,B,http://trimet.org/#tracker/stop/372,0,,West,Nearside
373,373,SW Beaverton-Hillsdale & 42nd,Eastbound stop in Portland (Stop ID 373),45.48536,-122.719881,B,http://trimet.org/#tracker/stop/373,0,,East,Farside
374,374,SW Beaverton-Hillsdale & 42nd,Westbound stop in Portland (Stop ID 374),45.485596,-122.7201,B,http://trimet.org/#tracker/stop/374,0,,West,Nearside
375,375,SW Beaverton-Hillsdale & 45th,Eastbound stop in Portland (Stop ID 375),45.485579,-122.722176,B,http://trimet.org/#tracker/stop/375,0,,East,Farside
376,376,SW Beaverton-Hillsdale & 45th,Westbound stop in Portland (Stop ID 376),45.485868,-122.723023,B,http://trimet.org/#tracker/stop/376,0,,West,Nearside
377,377,SW Beaverton-Hillsdale & 50th,Eastbound stop in Portland (Stop ID 377),45.486912,-122.728434,B,http://trimet.org/#tracker/stop/377,0,,East,Nearside
378,378,SW Beaverton-Hillsdale & 50th,Westbound stop in Portland (Stop ID 378),45.487107,-122.728428,B,http://trimet.org/#tracker/stop/378,0,,West,Opposite
379,379,SW Beaverton-Hillsdale & 56th,Eastbound stop in Portland (Stop ID 379),45.486931,-122.734902,B,http://trimet.org/#tracker/stop/379,0,,East,Opposite
380,380,SW Beaverton-Hillsdale & 56th,Westbound stop in Portland (Stop ID 380),45.487147,-122.735361,B,http://trimet.org/#tracker/stop/380,0,,West,Farside
381,381,SW Beaverton-Hillsdale & 59th,Westbound stop in Portland (Stop ID 381),45.487169,-122.737681,B,http://trimet.org/#tracker/stop/381,0,,West,Nearside
382,382,SW Beaverton-Hillsdale & 62nd,Eastbound stop in Portland (Stop ID 382),45.48696,-122.740469,B,http://trimet.org/#tracker/stop/382,0,,East,Farside
383,383,6500 Block SW Beaverton-Hillsdale,Eastbound stop in Washington Co. (Stop ID 383),45.486956,-122.7444,B,http://trimet.org/#tracker/stop/383,0,,East,At
384,384,SW Beaverton-Hillsdale & 65th,Westbound stop in Washington Co. (Stop ID 384),45.487217,-122.74395,B,http://trimet.org/#tracker/stop/384,0,,West,Opposite
385,385,SW Beaverton-Hillsdale & 78th,Westbound stop in Washington Co. (Stop ID 385),45.486256,-122.756777,B,http://trimet.org/#tracker/stop/385,0,,West,Nearside
386,386,SW Beaverton-Hillsdale & 78th,Eastbound stop in Washington Co. (Stop ID 386),45.486048,-122.757135,B,http://trimet.org/#tracker/stop/386,0,,East,Nearside
387,387,SW Beaverton-Hillsdale & 91st,Westbound stop in Beaverton (Stop ID 387),45.486517,-122.771423,B,http://trimet.org/#tracker/stop/387,0,,West,Farside
388,388,SW Beaverton-Hillsdale & 91st,Eastbound stop in Beaverton (Stop ID 388),45.486314,-122.771211,B,http://trimet.org/#tracker/stop/388,0,,East,Opposite
389,389,SW Beaverton-Hillsdale & 99th,Westbound stop in Beaverton (Stop ID 389),45.486619,-122.778266,B,http://trimet.org/#tracker/stop/389,0,,West,Nearside
390,390,SW Beaverton-Hillsdale & 99th,Eastbound stop in Beaverton (Stop ID 390),45.486426,-122.778535,B,http://trimet.org/#tracker/stop/390,0,,East,Opposite
394,394,SE Bell & Our Ct,Northbound stop in Clackamas Co. (Stop ID 394),45.449812,-122.592753,B,http://trimet.org/#tracker/stop/394,0,,North,Nearside
395,395,SE Bell & Johnson Creek,Northbound stop in Clackamas Co. (Stop ID 395),45.455846,-122.592743,B,http://trimet.org/#tracker/stop/395,0,,North,Nearside
396,396,SE Bell & Johnson Creek,Southbound stop in Clackamas Co. (Stop ID 396),45.45576,-122.59291,B,http://trimet.org/#tracker/stop/396,0,,South,Farside
397,397,SE Bell & Pierce,Northbound stop in Clackamas Co. (Stop ID 397),45.452461,-122.592761,B,http://trimet.org/#tracker/stop/397,0,,North,Nearside
398,398,SE Bell & Jordan,Southbound stop in Clackamas Co. (Stop ID 398),45.452703,-122.592943,B,http://trimet.org/#tracker/stop/398,0,,South,Nearside
400,400,SE Belmont & 11th,Eastbound stop in Portland (Stop ID 400),45.516432,-122.654348,B,http://trimet.org/#tracker/stop/400,0,,East,Farside
402,402,SE Belmont & 14th,Eastbound stop in Portland (Stop ID 402),45.51644,-122.651749,B,http://trimet.org/#tracker/stop/402,0,,East,Nearside
404,404,SE Belmont & 17th,Eastbound stop in Portland (Stop ID 404),45.516428,-122.648708,B,http://trimet.org/#tracker/stop/404,0,,East,Nearside
406,406,SE Belmont & 20th,Eastbound stop in Portland (Stop ID 406),45.516407,-122.645693,B,http://trimet.org/#tracker/stop/406,0,,East,Nearside
408,408,SE Belmont & 23rd,Eastbound stop in Portland (Stop ID 408),45.516405,-122.642604,B,http://trimet.org/#tracker/stop/408,0,,East,Nearside
410,410,SE Belmont & 26th,Westbound stop in Portland (Stop ID 410),45.516509,-122.638998,B,http://trimet.org/#tracker/stop/410,0,,West,Nearside
417,417,SE Belmont & 30th,Westbound stop in Portland (Stop ID 417),45.516511,-122.635117,B,http://trimet.org/#tracker/stop/417,0,,West,Farside
418,418,SE Belmont & 30th,Eastbound stop in Portland (Stop ID 418),45.516386,-122.634456,B,http://trimet.org/#tracker/stop/418,0,,East,Farside
422,422,SE Belmont & 34th,Eastbound stop in Portland (Stop ID 422),45.516395,-122.629206,B,http://trimet.org/#tracker/stop/422,0,,East,Farside
423,423,SE Belmont & 34th,Westbound stop in Portland (Stop ID 423),45.516498,-122.629903,B,http://trimet.org/#tracker/stop/423,0,,West,Farside
425,425,SE Belmont & 37th,Eastbound stop in Portland (Stop ID 425),45.516378,-122.625574,B,http://trimet.org/#tracker/stop/425,0,,East,Farside
426,426,SE Belmont & 38th,Westbound stop in Portland (Stop ID 426),45.516505,-122.624705,B,http://trimet.org/#tracker/stop/426,0,,West,Farside
427,427,SE Belmont & Cesar Chavez Blvd,Eastbound stop in Portland (Stop ID 427),45.516504,-122.622218,B,http://trimet.org/#tracker/stop/427,0,,East,Farside
428,428,SE Belmont & Cesar Chavez Blvd,Westbound stop in Portland (Stop ID 428),45.516639,-122.622525,B,http://trimet.org/#tracker/stop/428,0,,West,Nearside
429,429,SE Belmont & 42nd,Eastbound stop in Portland (Stop ID 429),45.516514,-122.619505,B,http://trimet.org/#tracker/stop/429,0,,East,Nearside
430,430,SE Belmont & 42nd,Westbound stop in Portland (Stop ID 430),45.516621,-122.61977,B,http://trimet.org/#tracker/stop/430,0,,West,Farside
435,435,SE Belmont & 46th,Westbound stop in Portland (Stop ID 435),45.516604,-122.615081,B,http://trimet.org/#tracker/stop/435,0,,West,Nearside
436,436,SE Belmont & 46th,Eastbound stop in Portland (Stop ID 436),45.516499,-122.614897,B,http://trimet.org/#tracker/stop/436,0,,East,Opposite
439,439,SE Belmont & 49th,Eastbound stop in Portland (Stop ID 439),45.516476,-122.612648,B,http://trimet.org/#tracker/stop/439,0,,East,Nearside
440,440,SE Belmont & 49th,Westbound stop in Portland (Stop ID 440),45.516615,-122.612334,B,http://trimet.org/#tracker/stop/440,0,,West,Nearside
442,442,SE Belmont & 50th,Eastbound stop in Portland (Stop ID 442),45.516489,-122.610883,B,http://trimet.org/#tracker/stop/442,0,,East,Farside
443,443,SE Belmont & 53rd,Eastbound stop in Portland (Stop ID 443),45.516491,-122.608503,B,http://trimet.org/#tracker/stop/443,0,,East,Farside
444,444,SE Belmont & 53rd,Westbound stop in Portland (Stop ID 444),45.516601,-122.60859,B,http://trimet.org/#tracker/stop/444,0,,West,Nearside
445,445,SE Belmont & 55th,Eastbound stop in Portland (Stop ID 445),45.516481,-122.606931,B,http://trimet.org/#tracker/stop/445,0,,East,Nearside
446,446,SE Belmont & 55th,Westbound stop in Portland (Stop ID 446),45.516746,-122.606695,B,http://trimet.org/#tracker/stop/446,0,,West,Nearside
448,448,SE Belmont & 58th,Eastbound stop in Portland (Stop ID 448),45.516679,-122.604097,B,http://trimet.org/#tracker/stop/448,0,,East,Opposite
449,449,SE Belmont & 58th,Westbound stop in Portland (Stop ID 449),45.516802,-122.60409,B,http://trimet.org/#tracker/stop/449,0,,West,Nearside
450,450,SE Belmont & 60th,Eastbound stop in Portland (Stop ID 450),45.516698,-122.601695,B,http://trimet.org/#tracker/stop/450,0,,East,Farside
451,451,SE Belmont & 60th,Westbound stop in Portland (Stop ID 451),45.516818,-122.601748,B,http://trimet.org/#tracker/stop/451,0,,West,Nearside
453,453,SE Belmont & 62nd,Eastbound stop in Portland (Stop ID 453),45.516713,-122.600326,B,http://trimet.org/#tracker/stop/453,0,,East,Opposite
454,454,SE Belmont & 62nd,Westbound stop in Portland (Stop ID 454),45.516827,-122.600537,B,http://trimet.org/#tracker/stop/454,0,,West,Farside
456,456,SE Belmont & 65th,Eastbound stop in Portland (Stop ID 456),45.5169,-122.596984,B,http://trimet.org/#tracker/stop/456,0,,East,Opposite
457,457,SE Belmont & 65th,Westbound stop in Portland (Stop ID 457),45.517004,-122.596901,B,http://trimet.org/#tracker/stop/457,0,,West,Nearside
459,459,SE Belmont & 67th,Eastbound stop in Portland (Stop ID 459),45.516896,-122.594285,B,http://trimet.org/#tracker/stop/459,0,,East,Nearside
460,460,SE Belmont & 68th,Westbound stop in Portland (Stop ID 460),45.517015,-122.593115,B,http://trimet.org/#tracker/stop/460,0,,West,Nearside
465,465,SE Belmont & 9th,Eastbound stop in Portland (Stop ID 465),45.516428,-122.656805,B,http://trimet.org/#tracker/stop/465,0,,East,Nearside
467,467,1400 Block SW Bertha,Eastbound stop in Portland (Stop ID 467),45.470914,-122.693601,B,http://trimet.org/#tracker/stop/467,0,,East,At
469,469,SW Binford Lake & Heiney,Westbound stop in Gresham (Stop ID 469),45.48104,-122.452229,B,http://trimet.org/#tracker/stop/469,0,,West,Nearside
470,470,SW Binford Lake & Towle,Eastbound stop in Gresham (Stop ID 470),45.480893,-122.448534,B,http://trimet.org/#tracker/stop/470,0,,East,Nearside
471,471,SW Binford Lake & Towle,Westbound stop in Gresham (Stop ID 471),45.481033,-122.448781,B,http://trimet.org/#tracker/stop/471,0,,West,Farside
492,492,11200 Block SW Boones Ferry Rd,Northbound stop in Portland (Stop ID 492),45.443671,-122.686628,B,http://trimet.org/#tracker/stop/492,0,,North,At
495,495,18200 Block SW Boones Ferry Rd,Southbound stop in Tualatin (Stop ID 495),45.387046,-122.757268,B,http://trimet.org/#tracker/stop/495,0,,South,At
496,496,18400 Block SW Boones Ferry Rd,Northbound stop in Durham (Stop ID 496),45.387039,-122.756954,B,http://trimet.org/#tracker/stop/496,0,,North,At
500,500,SW Boones Ferry Rd & Alsea,Southbound stop in Tualatin (Stop ID 500),45.36514,-122.773214,B,http://trimet.org/#tracker/stop/500,0,,South,Nearside
501,501,SW Boones Ferry Rd & Apache,Southbound stop in Tualatin (Stop ID 501),45.372988,-122.769659,B,http://trimet.org/#tracker/stop/501,0,,South,Nearside
502,502,SW Boones Ferry Rd & Apache,Northbound stop in Tualatin (Stop ID 502),45.372759,-122.769708,B,http://trimet.org/#tracker/stop/502,0,,North,Opposite
503,503,SW Boones Ferry Rd & Arapaho,Northbound stop in Tualatin (Stop ID 503),45.366675,-122.772978,B,http://trimet.org/#tracker/stop/503,0,,North,Nearside
506,506,SW Boones Ferry Rd & Arnold,Southbound stop in Portland (Stop ID 506),45.446484,-122.687186,B,http://trimet.org/#tracker/stop/506,0,,South,Farside
507,507,SW Boones Ferry Rd & Arnold,Northbound stop in Portland (Stop ID 507),45.446435,-122.686984,B,http://trimet.org/#tracker/stop/507,0,,North,Opposite
510,510,SW Boones Ferry Rd & Blake,Northbound stop in Tualatin (Stop ID 510),45.364842,-122.773004,B,http://trimet.org/#tracker/stop/510,0,,North,Nearside
512,512,Boones Ferry Rd & Bryant,Northbound stop in Lake Oswego (Stop ID 512),45.408799,-122.722573,B,http://trimet.org/#tracker/stop/512,0,,North,Farside
513,513,SW Lower Boones Ferry & Childs Rd,Eastbound stop in Tualatin (Stop ID 513),45.390038,-122.753063,B,http://trimet.org/#tracker/stop/513,0,,East,Farside
514,514,SW Lower Boones Ferry & Childs Rd,Westbound stop in Tualatin (Stop ID 514),45.390074,-122.753345,B,http://trimet.org/#tracker/stop/514,0,,West,Opposite
515,515,SW Boones Ferry Rd & Clara Ln,Westbound stop in Portland (Stop ID 515),45.43603,-122.69749,B,http://trimet.org/#tracker/stop/515,0,,West,Farside
516,516,SW Boones Ferry Rd & Colony Dr,Southbound stop in Portland (Stop ID 516),45.448911,-122.686277,B,http://trimet.org/#tracker/stop/516,0,,South,Opposite
517,517,SW Boones Ferry Rd & Colony Dr,Northbound stop in Portland (Stop ID 517),45.448876,-122.686123,B,http://trimet.org/#tracker/stop/517,0,,North,Farside
520,520,SW Boones Ferry Rd & Coronado,Southbound stop in Portland (Stop ID 520),45.442766,-122.686803,B,http://trimet.org/#tracker/stop/520,0,,South,Farside
521,521,SW Boones Ferry Rd & Day,Northbound stop in Wilsonville (Stop ID 521),45.340199,-122.773372,B,http://trimet.org/#tracker/stop/521,0,,North,Opposite
522,522,SW Boones Ferry Rd & Day,Southbound stop in Wilsonville (Stop ID 522),45.340127,-122.773694,B,http://trimet.org/#tracker/stop/522,0,,South,Farside
529,529,Boones Ferry Rd & Firwood,Southbound stop in Lake Oswego (Stop ID 529),45.408832,-122.723001,B,http://trimet.org/#tracker/stop/529,0,,South,Nearside
530,530,SW Boones Ferry Rd & Ibach,Southbound stop in Tualatin (Stop ID 530),45.360359,-122.774812,B,http://trimet.org/#tracker/stop/530,0,,South,Farside
531,531,SW Boones Ferry Rd & Ibach,Northbound stop in Tualatin (Stop ID 531),45.360549,-122.774472,B,http://trimet.org/#tracker/stop/531,0,,North,Nearside
533,533,SW Boones Ferry Rd & Greenhill Ln,Southbound stop in Washington Co. (Stop ID 533),45.347059,-122.775269,B,http://trimet.org/#tracker/stop/533,0,,South,Opposite
534,534,SW Boones Ferry Rd & Greenhill Ln,Northbound stop in Washington Co. (Stop ID 534),45.346892,-122.775098,B,http://trimet.org/#tracker/stop/534,0,,North,Nearside
535,535,SW Boones Ferry Rd & Killarney,Southbound stop in Tualatin (Stop ID 535),45.367352,-122.773133,B,http://trimet.org/#tracker/stop/535,0,,South,Nearside
536,536,Boones Ferry Rd & Kruse Way Pl,Southbound stop in Lake Oswego (Stop ID 536),45.416596,-122.715345,B,http://trimet.org/#tracker/stop/536,0,,South,Farside
537,537,18000 Block SW Lower Boones Ferry,Eastbound stop in Tualatin (Stop ID 537),45.391399,-122.751098,B,http://trimet.org/#tracker/stop/537,0,,East,At
538,538,Boones Ferry Rd & SW Madrona,Northbound stop in Clackamas Co. (Stop ID 538),45.406781,-122.726135,B,http://trimet.org/#tracker/stop/538,0,,North,Opposite
539,539,Boones Ferry Rd & SW Madrona,Southbound stop in Lake Oswego (Stop ID 539),45.407043,-122.726043,B,http://trimet.org/#tracker/stop/539,0,,South,Nearside
542,542,SW Boones Ferry Rd & Norwood,Southbound stop in Tualatin (Stop ID 542),45.353383,-122.774863,B,http://trimet.org/#tracker/stop/542,0,,South,Opposite
543,543,SW Boones Ferry Rd & Norwood,Northbound stop in Tualatin (Stop ID 543),45.353321,-122.774579,B,http://trimet.org/#tracker/stop/543,0,,North,Nearside
545,545,SW Boones Ferry Rd & Palatine,Northbound stop in Portland (Stop ID 545),45.444771,-122.686315,B,http://trimet.org/#tracker/stop/545,0,,North,Farside
553,553,Boones Ferry Rd & Rainbow,Southbound stop in Lake Oswego (Stop ID 553),45.421266,-122.710894,B,http://trimet.org/#tracker/stop/553,0,,South,Opposite
554,554,Boones Ferry Rd & Rainbow,Northbound stop in Lake Oswego (Stop ID 554),45.421376,-122.710405,B,http://trimet.org/#tracker/stop/554,0,,North,Farside
558,558,18000 Block SW Lower Boones Ferry,Westbound stop in Tualatin (Stop ID 558),45.390984,-122.751993,B,http://trimet.org/#tracker/stop/558,0,,West,At
562,562,SW Boones Ferry Rd & Siletz,Northbound stop in Tualatin (Stop ID 562),45.369001,-122.772528,B,http://trimet.org/#tracker/stop/562,0,,North,Nearside
563,563,SW Boones Ferry Rd & Siletz,Southbound stop in Tualatin (Stop ID 563),45.36952,-122.772632,B,http://trimet.org/#tracker/stop/563,0,,South,Nearside
564,564,Boones Ferry Rd & Spring Lane,Northbound stop in Lake Oswego (Stop ID 564),45.416735,-122.714821,B,http://trimet.org/#tracker/stop/564,0,,North,Nearside
565,565,SW Boones Ferry Rd & Stephenson,Northbound stop in Portland (Stop ID 565),45.439685,-122.686374,B,http://trimet.org/#tracker/stop/565,0,,North,Opposite
566,566,SW Boones Ferry Rd & Stephenson,Westbound stop in Portland (Stop ID 566),45.439566,-122.687108,B,http://trimet.org/#tracker/stop/566,0,,West,Farside
568,568,Boones Ferry Rd & Twin Fir,Southbound stop in Lake Oswego (Stop ID 568),45.418319,-122.713614,B,http://trimet.org/#tracker/stop/568,0,,South,Opposite
569,569,Boones Ferry Rd & Twin Fir,Northbound stop in Lake Oswego (Stop ID 569),45.418796,-122.712712,B,http://trimet.org/#tracker/stop/569,0,,North,Farside
570,570,SW Lower Boones Ferry & Boones Ferry,Eastbound stop in Tualatin (Stop ID 570),45.389237,-122.755057,B,http://trimet.org/#tracker/stop/570,0,,East,Farside
576,576,Boones Ferry Rd & West Sunset Dr,Southbound stop in Lake Oswego (Stop ID 576),45.405676,-122.728243,B,http://trimet.org/#tracker/stop/576,0,,South,Nearside
577,577,Boones Ferry Rd & West Sunset Dr,Northbound stop in Clackamas Co. (Stop ID 577),45.405246,-122.728455,B,http://trimet.org/#tracker/stop/577,0,,North,Opposite
580,580,SW Boones Ferry Rd & 19th,Eastbound stop in Multnomah Co. (Stop ID 580),45.436068,-122.697115,B,http://trimet.org/#tracker/stop/580,0,,East,Farside
581,581,SW Boones Ferry Rd & 22nd,Southbound stop in Portland (Stop ID 581),45.434307,-122.700142,B,http://trimet.org/#tracker/stop/581,0,,South,Opposite
583,583,SW Boones Ferry Rd & 4th,Westbound stop in Portland (Stop ID 583),45.451845,-122.683271,B,http://trimet.org/#tracker/stop/583,0,,West,Opposite
584,584,SW Boones Ferry Rd & 4th,Eastbound stop in Portland (Stop ID 584),45.451752,-122.683203,B,http://trimet.org/#tracker/stop/584,0,,East,Farside
593,593,SW Laurelwood & Brentwood,Northbound stop in Beaverton (Stop ID 593),45.490951,-122.760708,B,http://trimet.org/#tracker/stop/593,0,,North,Nearside
595,595,SW Brentwood & 78th,Eastbound stop in Washington Co. (Stop ID 595),45.490977,-122.757731,B,http://trimet.org/#tracker/stop/595,0,,East,Nearside
596,596,NW Bridge Ave & St Helens,Northbound stop in Portland (Stop ID 596),45.587365,-122.773682,B,http://trimet.org/#tracker/stop/596,0,,North,Nearside
597,597,NW Bridge Ave & Germantown,Northbound stop in Portland (Stop ID 597),45.586346,-122.772452,B,http://trimet.org/#tracker/stop/597,0,,North,Opposite
598,598,NW Bridge Ave & Germantown,Southbound stop in Portland (Stop ID 598),45.586455,-122.772802,B,http://trimet.org/#tracker/stop/598,0,,South,Nearside
599,599,NW Bridge Ave & Springville,Northbound stop in Portland (Stop ID 599),45.585252,-122.771428,B,http://trimet.org/#tracker/stop/599,0,,North,Opposite
600,600,NW Bridge Ave & Springville,Southbound stop in Portland (Stop ID 600),45.585252,-122.771583,B,http://trimet.org/#tracker/stop/600,0,,South,Nearside
605,605,NE Broadway & Grand,Westbound stop in Portland (Stop ID 605),45.535142,-122.660461,B,http://trimet.org/#tracker/stop/605,0,,West,Nearside
607,607,SW Broadway & Hall,Southbound stop in Portland (Stop ID 607),45.510406,-122.68456,B,http://trimet.org/#tracker/stop/607,0,,South,Farside
611,611,N Broadway & Benton,Eastbound stop in Portland (Stop ID 611),45.534032,-122.669905,B,http://trimet.org/#tracker/stop/611,0,,East,Farside
614,614,SW Broadway & Lincoln,Southbound stop in Portland (Stop ID 614),45.508238,-122.685535,B,http://trimet.org/#tracker/stop/614,0,,South,Nearside
616,616,SW Broadway & Market,Southbound stop in Portland (Stop ID 616),45.513045,-122.683143,B,http://trimet.org/#tracker/stop/616,0,,South,Farside
622,622,NE Broadway & M L King,Westbound stop in Portland (Stop ID 622),45.535161,-122.661985,B,http://trimet.org/#tracker/stop/622,0,,West,Farside
625,625,NW Broadway & Irving,Northbound stop in Portland (Stop ID 625),45.527807,-122.677488,B,http://trimet.org/#tracker/stop/625,0,,North,Nearside
627,627,N Broadway & Vancouver,Westbound stop in Portland (Stop ID 627),45.535198,-122.667504,B,http://trimet.org/#tracker/stop/627,0,,West,Nearside
629,629,NE Broadway & 12th,Westbound stop in Portland (Stop ID 629),45.535103,-122.653405,B,http://trimet.org/#tracker/stop/629,0,,West,Nearside
631,631,NE Broadway & 16th,Westbound stop in Portland (Stop ID 631),45.535116,-122.649857,B,http://trimet.org/#tracker/stop/631,0,,West,Farside
633,633,NE Broadway & 2nd,Westbound stop in Portland (Stop ID 633),45.535165,-122.663511,B,http://trimet.org/#tracker/stop/633,0,,West,Nearside
634,634,NE Broadway & 21st,Westbound stop in Portland (Stop ID 634),45.535099,-122.645338,B,http://trimet.org/#tracker/stop/634,0,,West,Farside
635,635,NE Broadway & 24th,Westbound stop in Portland (Stop ID 635),45.535122,-122.641606,B,http://trimet.org/#tracker/stop/635,0,,West,Farside
636,636,NE Broadway & 26th,Eastbound stop in Portland (Stop ID 636),45.535068,-122.638671,B,http://trimet.org/#tracker/stop/636,0,,East,Farside
637,637,NE Broadway & 26th,Westbound stop in Portland (Stop ID 637),45.535238,-122.639566,B,http://trimet.org/#tracker/stop/637,0,,West,Farside
638,638,NE Broadway & 28th,Eastbound stop in Portland (Stop ID 638),45.535069,-122.63638,B,http://trimet.org/#tracker/stop/638,0,,East,Farside
639,639,NE Broadway & 28th,Westbound stop in Portland (Stop ID 639),45.535262,-122.636596,B,http://trimet.org/#tracker/stop/639,0,,West,Nearside
642,642,NE Broadway & 32nd,Eastbound stop in Portland (Stop ID 642),45.53508,-122.632699,B,http://trimet.org/#tracker/stop/642,0,,East,Farside
644,644,NE Broadway & 33rd,Westbound stop in Portland (Stop ID 644),45.535239,-122.63115,B,http://trimet.org/#tracker/stop/644,0,,West,Farside
646,646,NE Broadway & 35th,Eastbound stop in Portland (Stop ID 646),45.535066,-122.627798,B,http://trimet.org/#tracker/stop/646,0,,East,Farside
647,647,NE Broadway & 35th,Westbound stop in Portland (Stop ID 647),45.535239,-122.628275,B,http://trimet.org/#tracker/stop/647,0,,West,Nearside
648,648,NE Broadway & 37th,Eastbound stop in Portland (Stop ID 648),45.535058,-122.625522,B,http://trimet.org/#tracker/stop/648,0,,East,Nearside
649,649,NE Broadway & 37th,Westbound stop in Portland (Stop ID 649),45.535232,-122.624789,B,http://trimet.org/#tracker/stop/649,0,,West,Nearside
650,650,NE Broadway & 44th,Westbound stop in Portland (Stop ID 650),45.535188,-122.617752,B,http://trimet.org/#tracker/stop/650,0,,West,Nearside
651,651,NE Broadway & 44th,Eastbound stop in Portland (Stop ID 651),45.535061,-122.617613,B,http://trimet.org/#tracker/stop/651,0,,East,Farside
653,653,NE Broadway & 47th,Eastbound stop in Portland (Stop ID 653),45.53507,-122.615114,B,http://trimet.org/#tracker/stop/653,0,,East,Nearside
654,654,SW Broadway & 5th,Westbound stop in Portland (Stop ID 654),45.506702,-122.683474,B,http://trimet.org/#tracker/stop/654,0,,West,Nearside
655,655,NE Broadway & 7th,Westbound stop in Portland (Stop ID 655),45.535148,-122.658468,B,http://trimet.org/#tracker/stop/655,0,,West,Nearside
656,656,NE Broadway & 9th,Westbound stop in Portland (Stop ID 656),45.535135,-122.656399,B,http://trimet.org/#tracker/stop/656,0,,West,Nearside
663,663,Bryant & Black Forest Ct,Northbound stop in Lake Oswego (Stop ID 663),45.399472,-122.723022,B,http://trimet.org/#tracker/stop/663,0,,North,Opposite
664,664,Bryant & Chapman Way,Northbound stop in Lake Oswego (Stop ID 664),45.401603,-122.723042,B,http://trimet.org/#tracker/stop/664,0,,North,Farside
665,665,Bryant & Lakeview,Northbound stop in Lake Oswego (Stop ID 665),45.403939,-122.723055,B,http://trimet.org/#tracker/stop/665,0,,North,Nearside
667,667,17500 Block Bryant,Southbound stop in Lake Oswego (Stop ID 667),45.398875,-122.723161,B,http://trimet.org/#tracker/stop/667,0,,South,At
668,668,Bryant & Lords Ln,Northbound stop in Lake Oswego (Stop ID 668),45.398275,-122.723025,B,http://trimet.org/#tracker/stop/668,0,,North,Nearside
669,669,Bryant & Wildwood,Southbound stop in Lake Oswego (Stop ID 669),45.399986,-122.723187,B,http://trimet.org/#tracker/stop/669,0,,South,Farside
672,672,Kerr & Jefferson Pkwy,Southbound stop in Lake Oswego (Stop ID 672),45.431094,-122.718476,B,http://trimet.org/#tracker/stop/672,0,,South,Nearside
682,682,4600 Block W Burnside,Westbound stop in Portland (Stop ID 682),45.5194,-122.725046,B,http://trimet.org/#tracker/stop/682,0,,West,At
685,685,W Burnside & SW Fischer Ln,Eastbound stop in Portland (Stop ID 685),45.519156,-122.722144,B,http://trimet.org/#tracker/stop/685,0,,East,Nearside
686,686,W Burnside & NW Barnes,Northbound stop in Portland (Stop ID 686),45.520503,-122.720686,B,http://trimet.org/#tracker/stop/686,0,,North,Opposite
687,687,W Burnside & NW Barnes,Westbound stop in Portland (Stop ID 687),45.520238,-122.721263,B,http://trimet.org/#tracker/stop/687,0,,West,Farside
689,689,W Burnside & Burnside Bridge,Westbound stop in Portland (Stop ID 689),45.52325,-122.671007,B,http://trimet.org/#tracker/stop/689,0,,West,At
690,690,W Burnside & Mt. Calvary Cemetery,Eastbound stop in Portland (Stop ID 690),45.519332,-122.735182,B,http://trimet.org/#tracker/stop/690,0,,East,At
691,691,W Burnside & Mt Calvary Cemetery,Westbound stop in Portland (Stop ID 691),45.51945,-122.735171,B,http://trimet.org/#tracker/stop/691,0,,West,At
696,696,9100 Block E Burnside,Eastbound stop in Portland (Stop ID 696),45.52266,-122.570564,B,http://trimet.org/#tracker/stop/696,0,,East,Opposite
697,697,9100 Block E Burnside,Westbound stop in Portland (Stop ID 697),45.522836,-122.570643,B,http://trimet.org/#tracker/stop/697,0,,West,At
701,701,E Burnside & SE Floral,Eastbound stop in Portland (Stop ID 701),45.522781,-122.62898,B,http://trimet.org/#tracker/stop/701,0,,East,Nearside
702,702,E Burnside & NE Floral,Westbound stop in Portland (Stop ID 702),45.522931,-122.628576,B,http://trimet.org/#tracker/stop/702,0,,West,Nearside
704,704,E Burnside & NE Grand,Eastbound stop in Portland (Stop ID 704),45.522863,-122.660874,B,http://trimet.org/#tracker/stop/704,0,,East,Nearside
706,706,W Burnside & NW Hermosa,Eastbound stop in Portland (Stop ID 706),45.522508,-122.714966,B,http://trimet.org/#tracker/stop/706,0,,East,Opposite
707,707,W Burnside & NW Hermosa,Westbound stop in Portland (Stop ID 707),45.522658,-122.71501,B,http://trimet.org/#tracker/stop/707,0,,West,Farside
710,710,E Burnside & SE Laurelhurst,Eastbound stop in Portland (Stop ID 710),45.523111,-122.62548,B,http://trimet.org/#tracker/stop/710,0,,East,Nearside
711,711,E Burnside & NE Laurelhurst,Westbound stop in Portland (Stop ID 711),45.523346,-122.625203,B,http://trimet.org/#tracker/stop/711,0,,West,Nearside
712,712,W Burnside & SW Tichner,Eastbound stop in Portland (Stop ID 712),45.523015,-122.710722,B,http://trimet.org/#tracker/stop/712,0,,East,Farside
713,713,W Burnside & NW Macleay,Westbound stop in Portland (Stop ID 713),45.523437,-122.710131,B,http://trimet.org/#tracker/stop/713,0,,West,Farside
715,715,W Burnside & SW 8th,Eastbound stop in Portland (Stop ID 715),45.522912,-122.678538,B,http://trimet.org/#tracker/stop/715,0,,East,Nearside
716,716,W Burnside & NW Park,Westbound stop in Portland (Stop ID 716),45.523115,-122.678939,B,http://trimet.org/#tracker/stop/716,0,,West,Nearside
718,718,W Burnside & SW St Clair,Eastbound stop in Portland (Stop ID 718),45.523288,-122.69698,B,http://trimet.org/#tracker/stop/718,0,,East,Nearside
723,723,W Burnside & SW 13th,Eastbound stop in Portland (Stop ID 723),45.522857,-122.684296,B,http://trimet.org/#tracker/stop/723,0,,East,Nearside
725,725,W Burnside & SW 15th,Eastbound stop in Portland (Stop ID 725),45.522812,-122.686675,B,http://trimet.org/#tracker/stop/725,0,,East,Nearside
726,726,E Burnside & SE 16th,Eastbound stop in Portland (Stop ID 726),45.522812,-122.649085,B,http://trimet.org/#tracker/stop/726,0,,East,Farside
730,730,E Burnside & NE 18th,Westbound stop in Portland (Stop ID 730),45.52297,-122.647367,B,http://trimet.org/#tracker/stop/730,0,,West,Nearside
735,735,W Burnside & NW 19th,Westbound stop in Portland (Stop ID 735),45.523077,-122.690065,B,http://trimet.org/#tracker/stop/735,0,,West,Nearside
740,740,E Burnside & SE 20th,Eastbound stop in Portland (Stop ID 740),45.522781,-122.64566,B,http://trimet.org/#tracker/stop/740,0,,East,Nearside
742,742,W Burnside & NW 20th Pl,Westbound stop in Portland (Stop ID 742),45.523215,-122.692841,B,http://trimet.org/#tracker/stop/742,0,,West,Nearside
747,747,W Burnside & NW King,Westbound stop in Portland (Stop ID 747),45.523317,-122.694954,B,http://trimet.org/#tracker/stop/747,0,,West,Nearside
749,749,W Burnside & SW 21st ,Eastbound stop in Portland (Stop ID 749),45.523145,-122.694489,B,http://trimet.org/#tracker/stop/749,0,,East,Nearside
755,755,W Burnside & NW 23rd,Westbound stop in Portland (Stop ID 755),45.523491,-122.697995,B,http://trimet.org/#tracker/stop/755,0,,West,Nearside
759,759,E Burnside & SE 24th,Eastbound stop in Portland (Stop ID 759),45.5228,-122.64111,B,http://trimet.org/#tracker/stop/759,0,,East,Farside
760,760,E Burnside & NE 24th,Westbound stop in Portland (Stop ID 760),45.522941,-122.641234,B,http://trimet.org/#tracker/stop/760,0,,West,Nearside
763,763,E Burnside & SE 28th,Eastbound stop in Portland (Stop ID 763),45.522784,-122.637436,B,http://trimet.org/#tracker/stop/763,0,,East,Nearside
764,764,E Burnside & NE 28th,Westbound stop in Portland (Stop ID 764),45.522957,-122.638026,B,http://trimet.org/#tracker/stop/764,0,,West,Farside
768,768,E Burnside & NE 32nd,Westbound stop in Portland (Stop ID 768),45.522949,-122.631984,B,http://trimet.org/#tracker/stop/768,0,,West,Farside
769,769,E Burnside & SE 32nd,Eastbound stop in Portland (Stop ID 769),45.522775,-122.631813,B,http://trimet.org/#tracker/stop/769,0,,East,Nearside
770,770,E Burnside & SE Cesar Chavez Blvd,Eastbound stop in Portland (Stop ID 770),45.523442,-122.62321,B,http://trimet.org/#tracker/stop/770,0,,East,Nearside
771,771,E Burnside & NE Cesar Chavez Blvd,Westbound stop in Portland (Stop ID 771),45.5236,-122.622862,B,http://trimet.org/#tracker/stop/771,0,,West,Nearside
774,774,E Burnside & SE 41st,Eastbound stop in Portland (Stop ID 774),45.522994,-122.620138,B,http://trimet.org/#tracker/stop/774,0,,East,Nearside
775,775,E Burnside & NE 41st,Westbound stop in Portland (Stop ID 775),45.523071,-122.619832,B,http://trimet.org/#tracker/stop/775,0,,West,Nearside
776,776,E Burnside & SE 44th,Eastbound stop in Portland (Stop ID 776),45.522967,-122.617467,B,http://trimet.org/#tracker/stop/776,0,,East,Nearside
777,777,E Burnside & NE 44th,Westbound stop in Portland (Stop ID 777),45.523146,-122.61717,B,http://trimet.org/#tracker/stop/777,0,,West,Nearside
778,778,E Burnside & NE 47th,Westbound stop in Portland (Stop ID 778),45.523033,-122.614801,B,http://trimet.org/#tracker/stop/778,0,,West,Nearside
779,779,E Burnside & SE 47th,Eastbound stop in Portland (Stop ID 779),45.522825,-122.614334,B,http://trimet.org/#tracker/stop/779,0,,East,Farside
780,780,W Burnside & NW 48th Ave,Westbound stop in Portland (Stop ID 780),45.519861,-122.727287,B,http://trimet.org/#tracker/stop/780,0,,West,Nearside
781,781,W Burnside & SW 48th Dr,Eastbound stop in Portland (Stop ID 781),45.519703,-122.726997,B,http://trimet.org/#tracker/stop/781,0,,East,Farside
782,782,W Burnside & NW 5th,Westbound stop in Portland (Stop ID 782),45.523169,-122.675893,B,http://trimet.org/#tracker/stop/782,0,,West,Farside
785,785,E Burnside & NE 52nd,Westbound stop in Portland (Stop ID 785),45.522958,-122.610057,B,http://trimet.org/#tracker/stop/785,0,,West,Nearside
786,786,E Burnside & SE 52nd,Eastbound stop in Portland (Stop ID 786),45.522824,-122.60998,B,http://trimet.org/#tracker/stop/786,0,,East,Farside
787,787,E Burnside & SE 55th,Eastbound stop in Portland (Stop ID 787),45.522811,-122.607143,B,http://trimet.org/#tracker/stop/787,0,,East,Farside
788,788,E Burnside & NE 55th,Westbound stop in Portland (Stop ID 788),45.522949,-122.60737,B,http://trimet.org/#tracker/stop/788,0,,West,Nearside
791,791,E Burnside & NE 58th,Westbound stop in Portland (Stop ID 791),45.522942,-122.604216,B,http://trimet.org/#tracker/stop/791,0,,West,Nearside
792,792,W Burnside & SW 6th,Eastbound stop in Portland (Stop ID 792),45.522948,-122.676635,B,http://trimet.org/#tracker/stop/792,0,,East,Nearside
793,793,E Burnside & SE 60th,Eastbound stop in Portland (Stop ID 793),45.522783,-122.602492,B,http://trimet.org/#tracker/stop/793,0,,East,Nearside
794,794,E Burnside & NE 60th,Westbound stop in Portland (Stop ID 794),45.522946,-122.602155,B,http://trimet.org/#tracker/stop/794,0,,West,Nearside
796,796,E Burnside & NE 62nd,Westbound stop in Portland (Stop ID 796),45.522941,-122.599464,B,http://trimet.org/#tracker/stop/796,0,,West,Nearside
799,799,E Burnside & SE 67th,Eastbound stop in Portland (Stop ID 799),45.523045,-122.595376,B,http://trimet.org/#tracker/stop/799,0,,East,Opposite
800,800,E Burnside & NE 67th,Westbound stop in Portland (Stop ID 800),45.523182,-122.594959,B,http://trimet.org/#tracker/stop/800,0,,West,Nearside
801,801,E Burnside & NE 69th,Westbound stop in Portland (Stop ID 801),45.523175,-122.591818,B,http://trimet.org/#tracker/stop/801,0,,West,Nearside
806,806,E Burnside & SE 72nd,Eastbound stop in Portland (Stop ID 806),45.523035,-122.589044,B,http://trimet.org/#tracker/stop/806,0,,East,Nearside
807,807,E Burnside & NE 72nd,Westbound stop in Portland (Stop ID 807),45.523167,-122.588825,B,http://trimet.org/#tracker/stop/807,0,,West,Nearside
808,808,E Burnside & SE 74th,Eastbound stop in Portland (Stop ID 808),45.522775,-122.586932,B,http://trimet.org/#tracker/stop/808,0,,East,Nearside
809,809,E Burnside & NE 74th,Westbound stop in Portland (Stop ID 809),45.522906,-122.586725,B,http://trimet.org/#tracker/stop/809,0,,West,Nearside
811,811,E Burnside & NE 79th,Westbound stop in Portland (Stop ID 811),45.522859,-122.58231,B,http://trimet.org/#tracker/stop/811,0,,West,Nearside
812,812,E Burnside & SE 79th,Eastbound stop in Portland (Stop ID 812),45.522748,-122.582532,B,http://trimet.org/#tracker/stop/812,0,,East,Nearside
813,813,E Burnside & SE 82nd,Eastbound stop in Portland (Stop ID 813),45.522729,-122.579492,B,http://trimet.org/#tracker/stop/813,0,,East,Nearside
814,814,E Burnside & NE 82nd,Westbound stop in Portland (Stop ID 814),45.522858,-122.578852,B,http://trimet.org/#tracker/stop/814,0,,West,Nearside
817,817,E Burnside & SE 87th,Eastbound stop in Portland (Stop ID 817),45.522685,-122.574027,B,http://trimet.org/#tracker/stop/817,0,,East,Nearside
818,818,E Burnside & NE 87th,Westbound stop in Portland (Stop ID 818),45.52282,-122.573772,B,http://trimet.org/#tracker/stop/818,0,,West,Nearside
820,820,E Burnside & SE 8th,Eastbound stop in Portland (Stop ID 820),45.522847,-122.657843,B,http://trimet.org/#tracker/stop/820,0,,East,Nearside
822,822,E Burnside & SE 94th,Eastbound stop in Portland (Stop ID 822),45.522618,-122.566533,B,http://trimet.org/#tracker/stop/822,0,,East,Farside
823,823,E Burnside & NE 94th,Westbound stop in Portland (Stop ID 823),45.52276,-122.56671,B,http://trimet.org/#tracker/stop/823,0,,West,Nearside
830,830,S Buxton & SW Cherry Park,Northbound stop in Troutdale (Stop ID 830),45.534422,-122.388306,B,http://trimet.org/#tracker/stop/830,0,,North,Farside
831,831,S Buxton & SW Cherry Park,Southbound stop in Troutdale (Stop ID 831),45.53376,-122.388442,B,http://trimet.org/#tracker/stop/831,0,,South,Nearside
832,832,Buxton & E Columbia River Hwy,Northbound stop in Troutdale (Stop ID 832),45.540555,-122.38824,B,http://trimet.org/#tracker/stop/832,0,,North,Nearside
833,833,S Buxton & SW Martine,Southbound stop in Troutdale (Stop ID 833),45.53584,-122.388483,B,http://trimet.org/#tracker/stop/833,0,,South,Nearside
836,836,S Buxton & SE 6th,Northbound stop in Troutdale (Stop ID 836),45.537024,-122.388282,B,http://trimet.org/#tracker/stop/836,0,,North,Nearside
837,837,S Buxton & SE 8th,Northbound stop in Troutdale (Stop ID 837),45.535649,-122.388291,B,http://trimet.org/#tracker/stop/837,0,,North,Nearside
838,838,SE Bybee & Milwaukie,Westbound stop in Portland (Stop ID 838),45.473797,-122.648402,B,http://trimet.org/#tracker/stop/838,0,,West,Nearside
839,839,SE Bybee & Milwaukie,Eastbound stop in Portland (Stop ID 839),45.47365,-122.648916,B,http://trimet.org/#tracker/stop/839,0,,East,Nearside
843,843,SE Bybee & 14th,Westbound stop in Portland (Stop ID 843),45.473737,-122.651634,B,http://trimet.org/#tracker/stop/843,0,,West,Nearside
844,844,SE Bybee & 14th,Eastbound stop in Portland (Stop ID 844),45.473627,-122.651422,B,http://trimet.org/#tracker/stop/844,0,,East,Farside
845,845,SE Bybee & 17th,Eastbound stop in Portland (Stop ID 845),45.473707,-122.647859,B,http://trimet.org/#tracker/stop/845,0,,East,Nearside
846,846,SE Bybee & 18th,Westbound stop in Portland (Stop ID 846),45.473893,-122.646644,B,http://trimet.org/#tracker/stop/846,0,,West,Nearside
847,847,SE Bybee & 19th,Eastbound stop in Portland (Stop ID 847),45.473827,-122.645883,B,http://trimet.org/#tracker/stop/847,0,,East,Nearside
848,848,SE Bybee & 20th,Westbound stop in Portland (Stop ID 848),45.474019,-122.644661,B,http://trimet.org/#tracker/stop/848,0,,West,Nearside
852,852,SE Bybee & 22nd,Eastbound stop in Portland (Stop ID 852),45.474037,-122.642377,B,http://trimet.org/#tracker/stop/852,0,,East,Farside
853,853,SE Bybee & 22nd,Westbound stop in Portland (Stop ID 853),45.474141,-122.642694,B,http://trimet.org/#tracker/stop/853,0,,West,Nearside
855,855,SE Bybee & 23rd,Westbound stop in Portland (Stop ID 855),45.474231,-122.641275,B,http://trimet.org/#tracker/stop/855,0,,West,Nearside
858,858,SE Bybee & 27th,Eastbound stop in Portland (Stop ID 858),45.474305,-122.63597,B,http://trimet.org/#tracker/stop/858,0,,East,Farside
859,859,2400 Block SE Bybee,Westbound stop in Portland (Stop ID 859),45.474429,-122.637518,B,http://trimet.org/#tracker/stop/859,0,,West,At
860,860,SE Bybee & 28th,Southbound stop in Portland (Stop ID 860),45.473488,-122.634763,B,http://trimet.org/#tracker/stop/860,0,,South,Nearside
861,861,4600 Block SW Cameron,Eastbound stop in Portland (Stop ID 861),45.483441,-122.724795,B,http://trimet.org/#tracker/stop/861,0,,East,At
862,862,SW Cameron & Fairvale Ct,Eastbound stop in Portland (Stop ID 862),45.483464,-122.72736,B,http://trimet.org/#tracker/stop/862,0,,East,Nearside
863,863,SW Cameron & Shattuck,Eastbound stop in Portland (Stop ID 863),45.483508,-122.734806,B,http://trimet.org/#tracker/stop/863,0,,East,Farside
865,865,SW Cameron & 53rd,Eastbound stop in Portland (Stop ID 865),45.483484,-122.73162,B,http://trimet.org/#tracker/stop/865,0,,East,Nearside
868,868,SW Campus Dr & OHSU Garage F,Eastbound stop in Portland (Stop ID 868),45.498187,-122.684303,B,http://trimet.org/#tracker/stop/868,0,,East,Opposite
870,870,SW Campus Dr & Terwilliger,Eastbound stop in Portland (Stop ID 870),45.499105,-122.682572,B,http://trimet.org/#tracker/stop/870,0,,East,Nearside
871,871,SW Campus Dr & Loading Dock 5,Westbound stop in Portland (Stop ID 871),45.498854,-122.685196,B,http://trimet.org/#tracker/stop/871,0,,West,At
882,882,7500 Block SW Canyon,Westbound stop in Beaverton (Stop ID 882),45.498895,-122.754627,B,http://trimet.org/#tracker/stop/882,0,,West,At
883,883,SW Canyon & Canyon Dr,Westbound stop in Beaverton (Stop ID 883),45.498446,-122.764453,B,http://trimet.org/#tracker/stop/883,0,,West,Opposite
885,885,SW Canyon & Benz Park,Westbound stop in Beaverton (Stop ID 885),45.501681,-122.752358,B,http://trimet.org/#tracker/stop/885,0,,West,Nearside
890,890,SW Canyon & Copel,Westbound stop in Beaverton (Stop ID 890),45.500674,-122.75344,B,http://trimet.org/#tracker/stop/890,0,,West,Nearside
892,892,SW Canyon & Jade,Northbound stop in Beaverton (Stop ID 892),45.500321,-122.753355,B,http://trimet.org/#tracker/stop/892,0,,North,Farside
893,893,SW Canyon & Linden,Eastbound stop in Washington Co. (Stop ID 893),45.497797,-122.755623,B,http://trimet.org/#tracker/stop/893,0,,East,Opposite
894,894,Hwy 26 On Ramp & SW Skyline,Eastbound stop in Portland (Stop ID 894),45.508206,-122.735568,B,http://trimet.org/#tracker/stop/894,0,,East,Farside
895,895,Hwy 26/Canyon Rd Ramp & SW Skyline,Westbound stop in Portland (Stop ID 895),45.509162,-122.73636,B,http://trimet.org/#tracker/stop/895,0,,West,Farside
898,898,SW Canyon & Walker,Westbound stop in Beaverton (Stop ID 898),45.493448,-122.779968,B,http://trimet.org/#tracker/stop/898,0,,West,Farside
899,899,SW Canyon & Walker,Eastbound stop in Beaverton (Stop ID 899),45.493334,-122.779414,B,http://trimet.org/#tracker/stop/899,0,,East,Opposite
904,904,SW Canyon & 104th,Westbound stop in Beaverton (Stop ID 904),45.492754,-122.783512,B,http://trimet.org/#tracker/stop/904,0,,West,Nearside
906,906,SW Canyon & 107th,Eastbound stop in Beaverton (Stop ID 906),45.491826,-122.787028,B,http://trimet.org/#tracker/stop/906,0,,East,Nearside
907,907,SW Canyon & 107th,Westbound stop in Washington Co. (Stop ID 907),45.492101,-122.786756,B,http://trimet.org/#tracker/stop/907,0,,West,Nearside
908,908,SW Canyon & 110th,Eastbound stop in Beaverton (Stop ID 908),45.491149,-122.789972,B,http://trimet.org/#tracker/stop/908,0,,East,Nearside
909,909,SW Canyon & 110th,Westbound stop in Beaverton (Stop ID 909),45.491442,-122.789906,B,http://trimet.org/#tracker/stop/909,0,,West,Farside
910,910,SW Canyon & 115th,Westbound stop in Beaverton (Stop ID 910),45.490041,-122.795325,B,http://trimet.org/#tracker/stop/910,0,,West,Nearside
912,912,SW Canyon & 73rd,Eastbound stop in Beaverton (Stop ID 912),45.501477,-122.752277,B,http://trimet.org/#tracker/stop/912,0,,East,Nearside
913,913,SW Canyon & 87th,Eastbound stop in Beaverton (Stop ID 913),45.498074,-122.766204,B,http://trimet.org/#tracker/stop/913,0,,East,Farside
914,914,SW Canyon & 87th,Westbound stop in Beaverton (Stop ID 914),45.498042,-122.767203,B,http://trimet.org/#tracker/stop/914,0,,West,Farside
915,915,SW Canyon & 91st,Eastbound stop in Beaverton (Stop ID 915),45.496029,-122.770705,B,http://trimet.org/#tracker/stop/915,0,,East,Nearside
917,917,SW Canyon & 93rd,Westbound stop in Beaverton (Stop ID 917),45.495097,-122.772969,B,http://trimet.org/#tracker/stop/917,0,,West,Opposite
918,918,SW Canyon & 93rd,Eastbound stop in Beaverton (Stop ID 918),45.495081,-122.7725,B,http://trimet.org/#tracker/stop/918,0,,East,Nearside
919,919,SW Canyon & 96th,Westbound stop in Beaverton (Stop ID 919),45.494098,-122.775745,B,http://trimet.org/#tracker/stop/919,0,,West,Opposite
920,920,SW Canyon & 96th,Eastbound stop in Beaverton (Stop ID 920),45.493968,-122.77539,B,http://trimet.org/#tracker/stop/920,0,,East,Nearside
921,921,SW Capitol & Alice,Southbound stop in Portland (Stop ID 921),45.458354,-122.71909,B,http://trimet.org/#tracker/stop/921,0,,South,Nearside
922,922,SW Capitol & Alice,Northbound stop in Portland (Stop ID 922),45.458242,-122.718921,B,http://trimet.org/#tracker/stop/922,0,,North,Nearside
923,923,SW Capitol & Barbur,Northbound stop in Portland (Stop ID 923),45.452927,-122.721441,B,http://trimet.org/#tracker/stop/923,0,,North,Nearside
925,925,SW Capitol & Bertha Ct,Eastbound stop in Portland (Stop ID 925),45.478076,-122.696368,B,http://trimet.org/#tracker/stop/925,0,,East,Farside
926,926,9500 Block SW Capitol,Southbound stop in Portland (Stop ID 926),45.456577,-122.719075,B,http://trimet.org/#tracker/stop/926,0,,South,Opposite
927,927,SW Capitol & Carson,Southbound stop in Portland (Stop ID 927),45.464226,-122.718071,B,http://trimet.org/#tracker/stop/927,0,,South,Nearside
929,929,SW Capitol & Sunset,Eastbound stop in Portland (Stop ID 929),45.478788,-122.692856,B,http://trimet.org/#tracker/stop/929,0,,East,Opposite
930,930,SW Capitol & Taylors Ferry,Southbound stop in Portland (Stop ID 930),45.454758,-122.720456,B,http://trimet.org/#tracker/stop/930,0,,South,Nearside
931,931,SW Capitol & Dickinson,Southbound stop in Portland (Stop ID 931),45.447259,-122.725555,B,http://trimet.org/#tracker/stop/931,0,,South,Farside
932,932,SW Capitol & Dickinson,Northbound stop in Portland (Stop ID 932),45.447351,-122.72518,B,http://trimet.org/#tracker/stop/932,0,,North,Nearside
933,933,SW Capitol & Dolph,Southbound stop in Portland (Stop ID 933),45.461858,-122.719187,B,http://trimet.org/#tracker/stop/933,0,,South,Opposite
934,934,SW Capitol & Dolph,Northbound stop in Portland (Stop ID 934),45.46205,-122.718868,B,http://trimet.org/#tracker/stop/934,0,,North,Farside
935,935,SW Capitol & Florida,Southbound stop in Portland (Stop ID 935),45.474695,-122.707788,B,http://trimet.org/#tracker/stop/935,0,,South,Farside
936,936,SW Capitol & Galeburn,Southbound stop in Portland (Stop ID 936),45.449468,-122.724241,B,http://trimet.org/#tracker/stop/936,0,,South,Opposite
937,937,SW Capitol & Galeburn,Northbound stop in Portland (Stop ID 937),45.449205,-122.724093,B,http://trimet.org/#tracker/stop/937,0,,North,Nearside
939,939,SW Capitol & Garden Home,Northbound stop in Portland (Stop ID 939),45.466705,-122.716356,B,http://trimet.org/#tracker/stop/939,0,,North,Opposite
942,942,SW Capitol & Idaho,Northbound stop in Portland (Stop ID 942),45.476681,-122.7016,B,http://trimet.org/#tracker/stop/942,0,,North,Nearside
943,943,SW Capitol & Idaho,Westbound stop in Portland (Stop ID 943),45.476746,-122.701726,B,http://trimet.org/#tracker/stop/943,0,,West,Farside
946,946,SW Capitol & Marigold,Northbound stop in Portland (Stop ID 946),45.460354,-122.719043,B,http://trimet.org/#tracker/stop/946,0,,North,Farside
947,947,SW Capitol & Marigold,Southbound stop in Portland (Stop ID 947),45.460388,-122.719242,B,http://trimet.org/#tracker/stop/947,0,,South,Farside
948,948,SW Capitol & Miles,Northbound stop in Portland (Stop ID 948),45.470569,-122.707624,B,http://trimet.org/#tracker/stop/948,0,,North,Nearside
949,949,SW Capitol & Miles,Southbound stop in Portland (Stop ID 949),45.47096,-122.707754,B,http://trimet.org/#tracker/stop/949,0,,South,Farside
951,951,SW Capitol & Pomona,Southbound stop in Portland (Stop ID 951),45.445156,-122.726945,B,http://trimet.org/#tracker/stop/951,0,,South,Farside
952,952,SW Capitol & Pomona,Northbound stop in Portland (Stop ID 952),45.445264,-122.72656,B,http://trimet.org/#tracker/stop/952,0,,North,Nearside
955,955,SW Capitol & Sunset,Westbound stop in Portland (Stop ID 955),45.478896,-122.693219,B,http://trimet.org/#tracker/stop/955,0,,West,Nearside
956,956,SW Capitol & Terwilliger,Eastbound stop in Portland (Stop ID 956),45.480037,-122.687281,B,http://trimet.org/#tracker/stop/956,0,,East,Nearside
957,957,SW Capitol & Terwilliger,Westbound stop in Portland (Stop ID 957),45.480272,-122.687337,B,http://trimet.org/#tracker/stop/957,0,,West,Farside
958,958,SW Capitol & Texas,Southbound stop in Portland (Stop ID 958),45.473592,-122.707792,B,http://trimet.org/#tracker/stop/958,0,,South,Farside
959,959,SW Capitol & California,Northbound stop in Portland (Stop ID 959),45.474393,-122.707573,B,http://trimet.org/#tracker/stop/959,0,,North,Nearside
963,963,SW Capitol & Nebraska,Eastbound stop in Portland (Stop ID 963),45.477647,-122.699252,B,http://trimet.org/#tracker/stop/963,0,,East,Farside
964,964,SW Capitol & Nebraska,Westbound stop in Portland (Stop ID 964),45.477706,-122.69962,B,http://trimet.org/#tracker/stop/964,0,,West,Opposite
965,965,SW Capitol & 26th,Eastbound stop in Portland (Stop ID 965),45.475996,-122.703481,B,http://trimet.org/#tracker/stop/965,0,,East,Farside
966,966,SW Capitol & 26th,Westbound stop in Portland (Stop ID 966),45.476127,-122.704188,B,http://trimet.org/#tracker/stop/966,0,,West,Farside
970,970,SW Capitol & 33rd,Westbound stop in Portland (Stop ID 970),45.468604,-122.71053,B,http://trimet.org/#tracker/stop/970,0,,West,Nearside
971,971,SW Capitol & 33rd,Eastbound stop in Portland (Stop ID 971),45.468549,-122.710173,B,http://trimet.org/#tracker/stop/971,0,,East,Opposite
972,972,SW Capitol & 35th,Eastbound stop in Portland (Stop ID 972),45.467989,-122.712973,B,http://trimet.org/#tracker/stop/972,0,,East,Nearside
975,975,SW Capitol & Brugger,Eastbound stop in Portland (Stop ID 975),45.455886,-122.719216,B,http://trimet.org/#tracker/stop/975,0,,East,Nearside
984,984,8600 Block SE Causey,Westbound stop in Clackamas Co. (Stop ID 984),45.441306,-122.573491,B,http://trimet.org/#tracker/stop/984,0,,West,At
987,987,8800 Block SE Causey,Eastbound stop in Clackamas Co. (Stop ID 987),45.441196,-122.572996,B,http://trimet.org/#tracker/stop/987,0,,East,Opposite
989,989,SE Causey & 82nd,Westbound stop in Clackamas Co. (Stop ID 989),45.441362,-122.5786,B,http://trimet.org/#tracker/stop/989,0,,West,Nearside
993,993,SW Cedar Hills & Butner,Southbound stop in Beaverton (Stop ID 993),45.512666,-122.795172,B,http://trimet.org/#tracker/stop/993,0,,South,Farside
995,995,3300 Block SW Cedar Hills,Northbound stop in Beaverton (Stop ID 995),45.495467,-122.809248,B,http://trimet.org/#tracker/stop/995,0,,North,At
996,996,SW Cedar Hills & Butner,Northbound stop in Beaverton (Stop ID 996),45.512728,-122.794687,B,http://trimet.org/#tracker/stop/996,0,,North,Nearside
1002,1002,SW Cedar Hills & Fairfield,Northbound stop in Beaverton (Stop ID 1002),45.496983,-122.808355,B,http://trimet.org/#tracker/stop/1002,0,,North,Nearside
1003,1003,SW Cedar Hills & Fairfield,Southbound stop in Beaverton (Stop ID 1003),45.497021,-122.808619,B,http://trimet.org/#tracker/stop/1003,0,,South,Opposite
1010,1010,SW Cedar Hills & Huntington,Eastbound stop in Beaverton (Stop ID 1010),45.502824,-122.80326,B,http://trimet.org/#tracker/stop/1010,0,,East,Opposite
1011,1011,SW Cedar Hills & Huntington,Westbound stop in Beaverton (Stop ID 1011),45.502998,-122.803399,B,http://trimet.org/#tracker/stop/1011,0,,West,Nearside
1013,1013,SW Cedar Hills & Jenkins,Northbound stop in Beaverton (Stop ID 1013),45.498757,-122.807304,B,http://trimet.org/#tracker/stop/1013,0,,North,Nearside
1014,1014,SW Cedar Hills & Jenkins,Southbound stop in Beaverton (Stop ID 1014),45.498589,-122.807695,B,http://trimet.org/#tracker/stop/1014,0,,South,Farside
1017,1017,SW Cedar Hills & Lynnridge,Eastbound stop in Beaverton (Stop ID 1017),45.504973,-122.798091,B,http://trimet.org/#tracker/stop/1017,0,,East,Farside
1018,1018,SW Cedar Hills & Lynnridge,Westbound stop in Beaverton (Stop ID 1018),45.504838,-122.798821,B,http://trimet.org/#tracker/stop/1018,0,,West,Farside
1019,1019,SW Cedar Hills & Park Way,Northbound stop in Beaverton (Stop ID 1019),45.507522,-122.796007,B,http://trimet.org/#tracker/stop/1019,0,,North,Nearside
1020,1020,SW Cedar Hills & Park Way,Southbound stop in Beaverton (Stop ID 1020),45.507376,-122.796382,B,http://trimet.org/#tracker/stop/1020,0,,South,Farside
1021,1021,SW Cedar Hills & Walker,Northbound stop in Beaverton (Stop ID 1021),45.501109,-122.805842,B,http://trimet.org/#tracker/stop/1021,0,,North,Nearside
1022,1022,SW Cedar Hills & Walker,Southbound stop in Beaverton (Stop ID 1022),45.501005,-122.806299,B,http://trimet.org/#tracker/stop/1022,0,,South,Farside
1026,1026,Jantzen Beach Main Stop,Southbound stop in Portland (Stop ID 1026),45.610836,-122.68139,B,http://trimet.org/#tracker/stop/1026,0,,South,Opposite
1034,1034,SW Center & 125th,Eastbound stop in Beaverton (Stop ID 1034),45.493593,-122.805216,B,http://trimet.org/#tracker/stop/1034,0,,East,Farside
1035,1035,SW Center & 125th,Westbound stop in Beaverton (Stop ID 1035),45.493732,-122.806116,B,http://trimet.org/#tracker/stop/1035,0,,West,Farside
1041,1041,N Channel Ave & Anchor,Eastbound stop in Portland (Stop ID 1041),45.556624,-122.70396,B,http://trimet.org/#tracker/stop/1041,0,,East,Farside
1042,1042,N Channel Ave & Ballast,Eastbound stop in Portland (Stop ID 1042),45.558013,-122.70764,B,http://trimet.org/#tracker/stop/1042,0,,East,Opposite
1043,1043,N Channel Ave & Commerce,Southbound stop in Portland (Stop ID 1043),45.560372,-122.712028,B,http://trimet.org/#tracker/stop/1043,0,,South,Opposite
1044,1044,N Channel Ave & Dolphin,Southbound stop in Portland (Stop ID 1044),45.562331,-122.715712,B,http://trimet.org/#tracker/stop/1044,0,,South,Opposite
1045,1045,N Chautauqua & Washburne,Northbound stop in Portland (Stop ID 1045),45.585828,-122.706898,B,http://trimet.org/#tracker/stop/1045,0,,North,Nearside
1046,1046,N Chautauqua & Washburne,Southbound stop in Portland (Stop ID 1046),45.586094,-122.706755,B,http://trimet.org/#tracker/stop/1046,0,,South,Opposite
1047,1047,N Chautauqua & Alaska,Northbound stop in Portland (Stop ID 1047),45.587706,-122.705298,B,http://trimet.org/#tracker/stop/1047,0,,North,Nearside
1050,1050,N Chautauqua & Willis,Southbound stop in Portland (Stop ID 1050),45.58454,-122.70805,B,http://trimet.org/#tracker/stop/1050,0,,South,Nearside
1051,1051,SW Chestnut & Bertha,Westbound stop in Portland (Stop ID 1051),45.472652,-122.694517,B,http://trimet.org/#tracker/stop/1051,0,,West,Nearside
1053,1053,SW Chestnut & 12th,Southbound stop in Portland (Stop ID 1053),45.474488,-122.691562,B,http://trimet.org/#tracker/stop/1053,0,,South,Nearside
1056,1056,SW Chestnut & 14th,Northbound stop in Portland (Stop ID 1056),45.473194,-122.693437,B,http://trimet.org/#tracker/stop/1056,0,,North,Nearside
1068,1068,Clackamas Community College,Southbound stop in Oregon City (Stop ID 1068),45.322754,-122.575286,B,http://trimet.org/#tracker/stop/1068,0,,South,At
1092,1092,SE Clinton & 21st,Westbound stop in Portland (Stop ID 1092),45.503444,-122.644417,B,http://trimet.org/#tracker/stop/1092,0,,West,Nearside
1093,1093,SE Clinton & 23rd,Eastbound stop in Portland (Stop ID 1093),45.503331,-122.642711,B,http://trimet.org/#tracker/stop/1093,0,,East,Nearside
1094,1094,SE Clinton & 23rd,Westbound stop in Portland (Stop ID 1094),45.503449,-122.642652,B,http://trimet.org/#tracker/stop/1094,0,,West,Farside
1095,1095,SE Clinton & 26th,Eastbound stop in Portland (Stop ID 1095),45.50331,-122.639899,B,http://trimet.org/#tracker/stop/1095,0,,East,Nearside
1097,1097,Rose Quarter Transit Center,Northbound stop in Portland (Stop ID 1097),45.530669,-122.665646,B,http://trimet.org/#tracker/stop/1097,0,,North,At
1099,1099,3500 Block NE Columbia Blvd,Westbound stop in Portland (Stop ID 1099),45.573056,-122.626893,B,http://trimet.org/#tracker/stop/1099,0,,West,At
1100,1100,3500 Block NE Columbia Blvd,Eastbound stop in Portland (Stop ID 1100),45.573103,-122.628285,B,http://trimet.org/#tracker/stop/1100,0,,East,Opposite
1101,1101,3800 Block NE Columbia Blvd,Westbound stop in Portland (Stop ID 1101),45.572518,-122.62389,B,http://trimet.org/#tracker/stop/1101,0,,West,At
1102,1102,3800 Block NE Columbia Blvd,Eastbound stop in Portland (Stop ID 1102),45.572226,-122.62326,B,http://trimet.org/#tracker/stop/1102,0,,East,At
1108,1108,SW Columbia & Park Ave,Eastbound stop in Portland (Stop ID 1108),45.514919,-122.683248,B,http://trimet.org/#tracker/stop/1108,0,,East,Nearside
1111,1111,SW Columbia & 12th,Eastbound stop in Portland (Stop ID 1111),45.515871,-122.686848,B,http://trimet.org/#tracker/stop/1111,0,,East,Nearside
1114,1114,SW 18th & Goose Hollow MAX Station,Eastbound stop in Portland (Stop ID 1114),45.517577,-122.693099,B,http://trimet.org/#tracker/stop/1114,0,,East,At
1115,1115,NE Columbia Blvd & 27th,Westbound stop in Portland (Stop ID 1115),45.575371,-122.638302,B,http://trimet.org/#tracker/stop/1115,0,,West,Opposite
1116,1116,NE Columbia Blvd & 42nd,Westbound stop in Portland (Stop ID 1116),45.571909,-122.620817,B,http://trimet.org/#tracker/stop/1116,0,,West,Farside
1117,1117,NE Columbia Blvd & 42nd,Eastbound stop in Portland (Stop ID 1117),45.571424,-122.61938,B,http://trimet.org/#tracker/stop/1117,0,,East,Farside
1118,1118,NE Columbia Blvd & 47th,Eastbound stop in Portland (Stop ID 1118),45.570715,-122.615133,B,http://trimet.org/#tracker/stop/1118,0,,East,Nearside
1122,1122,SW Commercial & Hall,Northbound stop in Tigard (Stop ID 1122),45.428655,-122.766448,B,http://trimet.org/#tracker/stop/1122,0,,North,Farside
1123,1123,SW Commercial & Hall,Southbound stop in Tigard (Stop ID 1123),45.428566,-122.766605,B,http://trimet.org/#tracker/stop/1123,0,,South,Nearside
1125,1125,SW Corbett & Abernethy,Southbound stop in Portland (Stop ID 1125),45.495168,-122.676093,B,http://trimet.org/#tracker/stop/1125,0,,South,Nearside
1126,1126,SW Corbett & Abernethy,Northbound stop in Portland (Stop ID 1126),45.494999,-122.675871,B,http://trimet.org/#tracker/stop/1126,0,,North,Nearside
1127,1127,SW Corbett & Bancroft,Southbound stop in Portland (Stop ID 1127),45.492478,-122.67629,B,http://trimet.org/#tracker/stop/1127,0,,South,Nearside
1128,1128,SW Corbett & Bancroft,Northbound stop in Portland (Stop ID 1128),45.492246,-122.676135,B,http://trimet.org/#tracker/stop/1128,0,,North,Nearside
1129,1129,SW Corbett & Boundary St,Northbound stop in Portland (Stop ID 1129),45.484872,-122.676704,B,http://trimet.org/#tracker/stop/1129,0,,North,Nearside
1130,1130,SW Corbett & Carolina,Northbound stop in Portland (Stop ID 1130),45.478622,-122.676786,B,http://trimet.org/#tracker/stop/1130,0,,North,Nearside
1131,1131,SW Corbett & Carolina,Southbound stop in Portland (Stop ID 1131),45.47879,-122.676958,B,http://trimet.org/#tracker/stop/1131,0,,South,Nearside
1132,1132,SW Corbett & Curry,Southbound stop in Portland (Stop ID 1132),45.498011,-122.67595,B,http://trimet.org/#tracker/stop/1132,0,,South,Nearside
1133,1133,SW Corbett & Curry,Northbound stop in Portland (Stop ID 1133),45.497875,-122.67581,B,http://trimet.org/#tracker/stop/1133,0,,North,Nearside
1134,1134,SW Corbett & Flower,Southbound stop in Portland (Stop ID 1134),45.482589,-122.67689,B,http://trimet.org/#tracker/stop/1134,0,,South,Nearside
1135,1135,SW Corbett & Flower,Northbound stop in Portland (Stop ID 1135),45.482415,-122.676754,B,http://trimet.org/#tracker/stop/1135,0,,North,Nearside
1136,1136,SW Corbett & Gaines,Northbound stop in Portland (Stop ID 1136),45.496442,-122.675857,B,http://trimet.org/#tracker/stop/1136,0,,North,Nearside
1137,1137,SW Corbett & Gaines,Southbound stop in Portland (Stop ID 1137),45.496573,-122.676009,B,http://trimet.org/#tracker/stop/1137,0,,South,Nearside
1138,1138,SW Corbett & Gibbs,Southbound stop in Portland (Stop ID 1138),45.499444,-122.675939,B,http://trimet.org/#tracker/stop/1138,0,,South,Nearside
1139,1139,SW Corbett & Gibbs,Northbound stop in Portland (Stop ID 1139),45.499286,-122.675756,B,http://trimet.org/#tracker/stop/1139,0,,North,Nearside
1140,1140,SW Corbett & Hamilton,Southbound stop in Portland (Stop ID 1140),45.490988,-122.676314,B,http://trimet.org/#tracker/stop/1140,0,,South,Nearside
1141,1141,SW Corbett & Hamilton,Northbound stop in Portland (Stop ID 1141),45.49076,-122.676151,B,http://trimet.org/#tracker/stop/1141,0,,North,Nearside
1146,1146,SW Corbett & Mitchell,Northbound stop in Portland (Stop ID 1146),45.486016,-122.676683,B,http://trimet.org/#tracker/stop/1146,0,,North,Farside
1147,1147,SW Corbett & Mitchell,Southbound stop in Portland (Stop ID 1147),45.485847,-122.676849,B,http://trimet.org/#tracker/stop/1147,0,,South,Nearside
1148,1148,SW Corbett & Nebraska,Southbound stop in Portland (Stop ID 1148),45.477399,-122.677015,B,http://trimet.org/#tracker/stop/1148,0,,South,Opposite
1149,1149,SW Corbett & Pendleton,Northbound stop in Portland (Stop ID 1149),45.48109,-122.676776,B,http://trimet.org/#tracker/stop/1149,0,,North,Nearside
1150,1150,SW Corbett & Pendleton,Southbound stop in Portland (Stop ID 1150),45.481266,-122.676916,B,http://trimet.org/#tracker/stop/1150,0,,South,Nearside
1151,1151,SW Corbett & Richardson,Southbound stop in Portland (Stop ID 1151),45.48715,-122.67683,B,http://trimet.org/#tracker/stop/1151,0,,South,Farside
1152,1152,SW Corbett & Richardson,Northbound stop in Portland (Stop ID 1152),45.487104,-122.676677,B,http://trimet.org/#tracker/stop/1152,0,,North,Nearside
1155,1155,SW Corbett & Sweeney,Southbound stop in Portland (Stop ID 1155),45.483704,-122.676878,B,http://trimet.org/#tracker/stop/1155,0,,South,Opposite
1158,1158,NE Evergreen Pkwy & Cornelius Pass Rd,Westbound stop in Hillsboro (Stop ID 1158),45.546509,-122.901132,B,http://trimet.org/#tracker/stop/1158,0,,West,Farside
1159,1159,NW Evergreen Pkwy & 188th,Westbound stop in Hillsboro (Stop ID 1159),45.538283,-122.869908,B,http://trimet.org/#tracker/stop/1159,0,,West,Nearside
1160,1160,12200 Block NW Cornell,Eastbound stop in Washington Co. (Stop ID 1160),45.526431,-122.802223,B,http://trimet.org/#tracker/stop/1160,0,,East,At
1161,1161,12200 Block NW Cornell,Westbound stop in Washington Co. (Stop ID 1161),45.526562,-122.802578,B,http://trimet.org/#tracker/stop/1161,0,,West,Opposite
1162,1162,12900 Block NW Cornell,Westbound stop in Washington Co. (Stop ID 1162),45.525018,-122.810207,B,http://trimet.org/#tracker/stop/1162,0,,West,At
